country,state,city,station,last_update,latitude,longitude,pollutant_id,pollutant_min,pollutant_max,pollutant_avg
India,Bihar,Buxar,"Charitra Van, Buxar - BSPCB","06-04-2026 18:00:00",25.567520,83.966379,SO2,28,38,32
India,Bihar,Buxar,"Charitra Van, Buxar - BSPCB","06-04-2026 18:00:00",25.567520,83.966379,CO,22,28,24
India,Bihar,Chhapra,"Darshan Nagar, Chhapra - BSPCB","06-04-2026 18:00:00",25.7808257,84.7446768,PM2.5,2,95,34
India,Bihar,Chhapra,"Darshan Nagar, Chhapra - BSPCB","06-04-2026 18:00:00",25.7808257,84.7446768,NH3,6,10,8
India,Bihar,Gaya,"Collectorate, Gaya - BSPCB","06-04-2026 18:00:00",24.7955,84.9994,OZONE,10,19,17
India,Bihar,Gaya,"SFTI Kusdihra, Gaya - BSPCB","06-04-2026 18:00:00",24.762518,84.982348,NO2,17,24,20
India,Bihar,Gaya,"SFTI Kusdihra, Gaya - BSPCB","06-04-2026 18:00:00",24.762518,84.982348,CO,10,35,21
India,Bihar,Hajipur,"Industrial Area, Hajipur - BSPCB","06-04-2026 18:00:00",25.697189,85.245900,PM10,75,136,106
India,Bihar,Hajipur,"Industrial Area, Hajipur - BSPCB","06-04-2026 18:00:00",25.697189,85.245900,NO2,36,64,47
India,Assam,Guwahati,"IITG, Guwahati - PCBA","06-04-2026 18:00:00",26.2028636,91.70046436,SO2,32,38,35
India,Assam,Guwahati,"IITG, Guwahati - PCBA","06-04-2026 18:00:00",26.2028636,91.70046436,OZONE,1,57,41
India,Assam,Guwahati,"LGBI Airport, Guwahati - PCBA","06-04-2026 18:00:00",26.10887,91.589544,NH3,3,24,6
India,Assam,Guwahati,"Pan Bazaar, Guwahati - PCBA","06-04-2026 18:00:00",26.187500,91.744194,SO2,10,13,11
India,Assam,Guwahati,"Pan Bazaar, Guwahati - PCBA","06-04-2026 18:00:00",26.187500,91.744194,CO,26,36,29
India,Assam,Guwahati,"Pan Bazaar, Guwahati - PCBA","06-04-2026 18:00:00",26.187500,91.744194,OZONE,11,33,30
India,Assam,Guwahati,"Railway Colony, Guwahati - PCBA","06-04-2026 18:00:00",26.181742,91.78063,NH3,1,1,1
India,Assam,Guwahati,"Railway Colony, Guwahati - PCBA","06-04-2026 18:00:00",26.181742,91.78063,SO2,2,15,5
India,Assam,Nalbari,"Bata Chowk, Nalbari - PCBA","06-04-2026 18:00:00",26.446912,91.439057,NO2,14,15,15
India,Assam,Nalbari,"Bata Chowk, Nalbari - PCBA","06-04-2026 18:00:00",26.446912,91.439057,SO2,2,8,8
India,Bihar,Aurangabad,"Gurdeo Nagar, Aurangabad - BSPCB","06-04-2026 18:00:00",24.75746,84.366208,OZONE,3,44,34
India,Bihar,Bettiah,"Kamalnath Nagar, Bettiah - BSPCB","06-04-2026 18:00:00",26.80365,84.51954,PM10,4,36,15
India,Bihar,Bettiah,"Kamalnath Nagar, Bettiah - BSPCB","06-04-2026 18:00:00",26.80365,84.51954,OZONE,2,20,9
India,Bihar,Bhagalpur,"DM Office_Kachari Chowk, Bhagalpur - BSPCB","06-04-2026 18:00:00",25.251013,86.989001,PM10,18,103,54
India,Bihar,Bhagalpur,"Mayaganj, Bhagalpur - BSPCB","06-04-2026 18:00:00",25.265194,87.012947,PM10,NA,NA,NA
India,Bihar,"Bihar Sharif","D M Colony, Bihar Sharif - BSPCB","06-04-2026 18:00:00",25.204762,85.514960,NH3,3,4,3
India,Bihar,"Bihar Sharif","D M Colony, Bihar Sharif - BSPCB","06-04-2026 18:00:00",25.204762,85.514960,SO2,10,10,10
India,Bihar,Katihar,"Mirchaibari, Katihar - BSPCB","06-04-2026 18:00:00",25.560083,87.553265,PM10,NA,NA,NA
India,Bihar,Katihar,"Mirchaibari, Katihar - BSPCB","06-04-2026 18:00:00",25.560083,87.553265,SO2,17,21,19
India,Bihar,Kishanganj,"SDM Office_Khagra, Kishanganj - BSPCB","06-04-2026 18:00:00",26.0881305,87.93840336,PM2.5,25,78,52
India,Bihar,Kishanganj,"SDM Office_Khagra, Kishanganj - BSPCB","06-04-2026 18:00:00",26.0881305,87.93840336,PM10,23,69,46
India,Bihar,Kishanganj,"SDM Office_Khagra, Kishanganj - BSPCB","06-04-2026 18:00:00",26.0881305,87.93840336,NH3,2,3,3
India,Bihar,Kishanganj,"SDM Office_Khagra, Kishanganj - BSPCB","06-04-2026 18:00:00",26.0881305,87.93840336,SO2,5,9,8
India,Bihar,Motihari,"Gandak Colony, Motihari - BSPCB","06-04-2026 18:00:00",26.63086,84.90051,NO2,3,5,4
India,Bihar,Munger,"Town Hall, Munger - BSPCB","06-04-2026 18:00:00",25.376776,86.471523,NH3,3,3,3
India,Andhra_Pradesh,Vijayawada,"Rajiv Gandhi Park, Vijayawada - APPCB","06-04-2026 18:00:00",16.509717,80.612222,NH3,6,8,7
India,Andhra_Pradesh,Vijayawada,"Rajiv Nagar, Vijayawada - APPCB","06-04-2026 18:00:00",16.554731,80.649110,CO,14,34,29
India,Arunachal_Pradesh,Naharlagun,"Naharlagun, Naharlagun - APSPCB","06-04-2026 18:00:00",27.103358,93.679645,OZONE,6,6,6
India,Assam,Guwahati,"IITG, Guwahati - PCBA","06-04-2026 18:00:00",26.2028636,91.70046436,NO2,1,6,2
India,Assam,Guwahati,"IITG, Guwahati - PCBA","06-04-2026 18:00:00",26.2028636,91.70046436,NH3,5,5,5
India,Andhra_Pradesh,Guntur,"Rajendra Nagar North, Guntur - APPCB","06-04-2026 18:00:00",16.316553,80.413302,NH3,5,7,6
India,Andhra_Pradesh,Kadapa,"Yerramukkapalli, Kadapa - APPCB","06-04-2026 18:00:00",14.465052,78.824187,PM10,56,101,70
India,Andhra_Pradesh,Kadapa,"Yerramukkapalli, Kadapa - APPCB","06-04-2026 18:00:00",14.465052,78.824187,NO2,13,31,16
India,Andhra_Pradesh,Kadapa,"Yerramukkapalli, Kadapa - APPCB","06-04-2026 18:00:00",14.465052,78.824187,NH3,4,7,4
India,Andhra_Pradesh,Rajamahendravaram,"Anand Kala Kshetram, Rajamahendravaram - APPCB","06-04-2026 18:00:00",16.9872867,81.7363176,PM2.5,NA,NA,NA
India,Assam,Silchar,"Tarapur, Silchar - PCBA","06-04-2026 18:00:00",24.82827,92.79525,CO,24,40,30
India,Assam,Sivasagar,"Girls College, Sivasagar - PCBA","06-04-2026 18:00:00",26.987634,94.636574,PM2.5,20,34,26
India,Bihar,Arrah,"New DM Office, Arrah - BSPCB","06-04-2026 18:00:00",25.5626095,84.663264,PM2.5,NA,NA,NA
India,Bihar,Arrah,"New DM Office, Arrah - BSPCB","06-04-2026 18:00:00",25.5626095,84.663264,NO2,NA,NA,NA
India,Bihar,Aurangabad,"Gurdeo Nagar, Aurangabad - BSPCB","06-04-2026 18:00:00",24.75746,84.366208,NO2,7,8,8
India,Andhra_Pradesh,Anantapur,"Gulzarpet, Anantapur - APPCB","06-04-2026 18:00:00",14.675886,77.593027,NO2,8,24,13
India,Andhra_Pradesh,Chittoor,"Gangineni Cheruvu, Chittoor - APPCB","06-04-2026 18:00:00",13.204880,79.097889,NH3,5,7,6
India,Andhra_Pradesh,Chittoor,"Gangineni Cheruvu, Chittoor - APPCB","06-04-2026 18:00:00",13.204880,79.097889,CO,6,24,17
India,Andhra_Pradesh,Eluru,"District Court, Eluru - APPCB","06-04-2026 18:00:00",16.711754,81.092095,SO2,8,14,11
India,Andhra_Pradesh,Tirupati,"Vaikuntapuram, Tirupati - APPCB","06-04-2026 18:00:00",13.615387,79.409230,SO2,11,21,13
India,Andhra_Pradesh,Vijayawada,"HB Colony, Vijayawada - APPCB","06-04-2026 18:00:00",16.536107,80.594233,PM2.5,54,147,80
India,Andhra_Pradesh,Vijayawada,"HB Colony, Vijayawada - APPCB","06-04-2026 18:00:00",16.536107,80.594233,SO2,9,18,12
India,Andhra_Pradesh,Vijayawada,"Kanuru, Vijayawada - APPCB","06-04-2026 18:00:00",16.486692,80.699436,SO2,NA,NA,NA
India,"Andaman and Nicobar","Sri Vijaya Puram","Police Line, Sri Vijaya Puram - ANPCC","06-04-2026 18:00:00",11.654054,92.734055,NH3,NA,NA,NA
India,"Andaman and Nicobar","Sri Vijaya Puram","Police Line, Sri Vijaya Puram - ANPCC","06-04-2026 18:00:00",11.654054,92.734055,SO2,NA,NA,NA
India,Delhi,Delhi,"Alipur, Delhi - DPCC","06-04-2026 18:00:00",28.815329,77.153010,PM10,47,320,145
India,Delhi,Delhi,"Anand Vihar, Delhi - DPCC","06-04-2026 18:00:00",28.647622,77.3158090,NO2,12,37,23
India,Delhi,Delhi,"Ashok Vihar, Delhi - DPCC","06-04-2026 18:00:00",28.695381,77.181665,SO2,13,25,18
India,Delhi,Delhi,"Ashok Vihar, Delhi - DPCC","06-04-2026 18:00:00",28.695381,77.181665,OZONE,2,93,90
India,Delhi,Delhi,"Bawana, Delhi - DPCC","06-04-2026 18:00:00",28.776200,77.051074,PM2.5,28,399,153
India,Delhi,Delhi,"Bawana, Delhi - DPCC","06-04-2026 18:00:00",28.776200,77.051074,NO2,6,48,19
India,Delhi,Delhi,"Bawana, Delhi - DPCC","06-04-2026 18:00:00",28.776200,77.051074,SO2,8,62,21
India,Delhi,Delhi,"Burari Crossing, Delhi - IMD","06-04-2026 18:00:00",28.7256504,77.2011573,PM10,NA,NA,NA
India,Delhi,Delhi,"Burari Crossing, Delhi - IMD","06-04-2026 18:00:00",28.7256504,77.2011573,OZONE,33,127,103
India,Delhi,Delhi,"CRRI Mathura Road, Delhi - IMD","06-04-2026 18:00:00",28.5512005,77.2735737,PM2.5,4,151,73
India,Delhi,Delhi,"CRRI Mathura Road, Delhi - IMD","06-04-2026 18:00:00",28.5512005,77.2735737,PM10,59,246,130
India,Delhi,Delhi,"Cantonment Area, Delhi - DPCC ","06-04-2026 18:00:00","28.594169 ","77.125100 ",PM10,49,198,108
India,Delhi,Delhi,"Cantonment Area, Delhi - DPCC ","06-04-2026 18:00:00","28.594169 ","77.125100 ",OZONE,7,47,42
India,Delhi,Delhi,"Chandni Chowk, Delhi - IITM","06-04-2026 18:00:00",28.656756,77.227234,SO2,11,19,16
India,Delhi,Delhi,"Chandni Chowk, Delhi - IITM","06-04-2026 18:00:00",28.656756,77.227234,OZONE,4,89,79
India,Delhi,Delhi,"Commonwealth Sports Complex, Delhi - DPCC","06-04-2026 18:00:00","28.615828 ","77.271992 ",PM2.5,18,192,84
India,Delhi,Delhi,"DTU, Delhi - CPCB","06-04-2026 18:00:00",28.7500499,77.1112615,NO2,38,59,51
India,Delhi,Delhi,"Dr. Karni Singh Shooting Range, Delhi - DPCC","06-04-2026 18:00:00",28.498571,77.264840,PM10,55,181,105
India,Delhi,Delhi,"Dwarka-Sector 8, Delhi - DPCC ","06-04-2026 18:00:00",28.5710274,77.0719006,SO2,14,54,27
India,Bihar,Rajgir,"Dangi Tola, Rajgir - BSPCB","06-04-2026 18:00:00",25.03280,85.41948,SO2,2,3,3
India,Bihar,Saharsa,"Police Line, Saharsa - BSPCB","06-04-2026 18:00:00",25.892357,86.590325,PM2.5,NA,NA,NA
India,Bihar,Siwan,"Chitragupta Nagar, Siwan - BSPCB","06-04-2026 18:00:00",26.2271665,84.3570427,PM10,NA,NA,NA
India,Bihar,Siwan,"Chitragupta Nagar, Siwan - BSPCB","06-04-2026 18:00:00",26.2271665,84.3570427,NH3,1,1,1
India,Chandigarh,Chandigarh,"Sector 22, Chandigarh - CPCC","06-04-2026 18:00:00",30.735567,76.775714,PM10,6,35,23
India,Chandigarh,Chandigarh,"Sector 22, Chandigarh - CPCC","06-04-2026 18:00:00",30.735567,76.775714,NO2,6,18,12
India,Chandigarh,Chandigarh,"Sector 22, Chandigarh - CPCC","06-04-2026 18:00:00",30.735567,76.775714,NH3,13,24,18
India,Chandigarh,Chandigarh,"Sector-25, Chandigarh - CPCC","06-04-2026 18:00:00",30.751462,76.762879,PM10,17,44,31
India,Chandigarh,Chandigarh,"Sector-25, Chandigarh - CPCC","06-04-2026 18:00:00",30.751462,76.762879,SO2,5,10,7
India,Bihar,Munger,"Town Hall, Munger - BSPCB","06-04-2026 18:00:00",25.376776,86.471523,SO2,NA,NA,NA
India,Bihar,Muzaffarpur,"MIT-Daudpur Kothi, Muzaffarpur - BSPCB","06-04-2026 18:00:00",26.1403345,85.3650192,PM10,54,69,63
India,Bihar,Muzaffarpur,"MIT-Daudpur Kothi, Muzaffarpur - BSPCB","06-04-2026 18:00:00",26.1403345,85.3650192,NH3,1,2,1
India,Bihar,Muzaffarpur,"Muzaffarpur Collectorate, Muzaffarpur - BSPCB","06-04-2026 18:00:00",26.1209,85.3647,PM2.5,70,123,92
India,Bihar,Patna,"DRM Office Danapur, Patna - BSPCB","06-04-2026 18:00:00",25.586562,85.043586,PM2.5,36,353,162
India,Bihar,Patna,"Govt. High School Shikarpur, Patna - BSPCB","06-04-2026 18:00:00",25.592539,85.227158,PM2.5,71,84,76
India,Chhattisgarh,Korba,"Rampur, Korba - CECB","06-04-2026 18:00:00",22.368195,82.746431,PM2.5,NA,NA,NA
India,Chhattisgarh,Korba,"Rampur, Korba - CECB","06-04-2026 18:00:00",22.368195,82.746431,NH3,NA,NA,NA
India,Chhattisgarh,Korba,"Rampur, Korba - CECB","06-04-2026 18:00:00",22.368195,82.746431,CO,10,22,14
India,Chhattisgarh,Korba,"Urja Nagar, Korba - CECB","06-04-2026 18:00:00",22.348441,82.549611,PM10,26,54,37
India,Chhattisgarh,Korba,"Urja Nagar, Korba - CECB","06-04-2026 18:00:00",22.348441,82.549611,SO2,1,9,5
India,Chhattisgarh,Kunjemura,"OP Jindal School, Kunjemura - CECB","06-04-2026 18:00:00",22.126650,83.483212,PM10,14,109,46
India,Chhattisgarh,Kunjemura,"OP Jindal School, Kunjemura - CECB","06-04-2026 18:00:00",22.126650,83.483212,NO2,15,76,31
India,Chhattisgarh,Kunjemura,"OP Jindal School, Kunjemura - CECB","06-04-2026 18:00:00",22.126650,83.483212,OZONE,3,23,20
India,Chandigarh,Chandigarh,"Sector-53, Chandigarh - CPCC","06-04-2026 18:00:00",30.719859,76.738637,NH3,11,17,15
India,Chhattisgarh,Bhilai,"Civic Center, Bhilai - Bhilai Steel Plant","06-04-2026 18:00:00",21.185571,81.343175,PM2.5,15,49,29
India,Chhattisgarh,Bhilai,"Hathkhoj, Bhilai - CECB","06-04-2026 18:00:00",21.224231,81.408350,NO2,19,67,36
India,Chhattisgarh,Chhal,"Nawapara SECL Colony, Chhal - CECB","06-04-2026 18:00:00",22.118125,83.140608,PM2.5,NA,NA,NA
India,Chhattisgarh,Chhal,"Nawapara SECL Colony, Chhal - CECB","06-04-2026 18:00:00",22.118125,83.140608,CO,21,30,25
India,Chhattisgarh,Raipur,"Bhatagaon New ISBT, Raipur - CECB","06-04-2026 18:00:00",21.219665,81.630094,NO2,25,36,30
India,Chhattisgarh,Raipur,"Bhatagaon New ISBT, Raipur - CECB","06-04-2026 18:00:00",21.219665,81.630094,CO,24,44,33
India,Chhattisgarh,Raipur,"Krishak Nagar, Raipur - CECB","06-04-2026 18:00:00",21.237755,81.705301,NH3,2,2,2
India,Chhattisgarh,Tumidih,"OP Jindal Industrial Park, Tumidih - CECB","06-04-2026 18:00:00",22.06631475,83.33820077,PM2.5,20,57,38
India,Chhattisgarh,Tumidih,"OP Jindal Industrial Park, Tumidih - CECB","06-04-2026 18:00:00",22.06631475,83.33820077,PM10,16,99,49
India,Bihar,Patna,"IGSC Planetarium Complex, Patna - BSPCB","06-04-2026 18:00:00",25.610369,85.132568,PM2.5,NA,NA,NA
India,Bihar,Patna,"IGSC Planetarium Complex, Patna - BSPCB","06-04-2026 18:00:00",25.610369,85.132568,NO2,NA,NA,NA
India,Bihar,Patna,"IGSC Planetarium Complex, Patna - BSPCB","06-04-2026 18:00:00",25.610369,85.132568,OZONE,60,61,60
India,Bihar,Patna,"Muradpur, Patna - BSPCB","06-04-2026 18:00:00",25.619651,85.147382,CO,8,38,18
India,Bihar,Patna,"Rajbansi Nagar, Patna - BSPCB","06-04-2026 18:00:00",25.599486,85.113666,NH3,2,3,3
India,Delhi,Delhi,"IGI Airport (T3), Delhi - IMD","06-04-2026 18:00:00",28.5627763,77.1180053,PM2.5,8,84,41
India,Delhi,Delhi,"IGI Airport (T3), Delhi - IMD","06-04-2026 18:00:00",28.5627763,77.1180053,NO2,19,46,33
India,Delhi,Delhi,"IHBAS, Dilshad Garden, Delhi - CPCB","06-04-2026 18:00:00",28.6811736,77.3025234,PM10,62,138,102
India,Delhi,Delhi,"IHBAS, Dilshad Garden, Delhi - CPCB","06-04-2026 18:00:00",28.6811736,77.3025234,SO2,4,26,15
India,Gujarat,Ahmedabad,"Rakhial, Ahmedabad - IITM","06-04-2026 18:00:00",23.016834,72.625775,SO2,6,115,26
India,Gujarat,Ahmedabad,"Rakhial, Ahmedabad - IITM","06-04-2026 18:00:00",23.016834,72.625775,CO,14,98,29
India,Gujarat,Ahmedabad,"SAC ISRO Bopal, Ahmedabad - IITM","06-04-2026 18:00:00",23.041137,72.456691,PM2.5,22,60,38
India,Gujarat,Ahmedabad,"SAC ISRO Bopal, Ahmedabad - IITM","06-04-2026 18:00:00",23.041137,72.456691,NO2,4,21,12
India,Gujarat,Ahmedabad,"SAC ISRO Bopal, Ahmedabad - IITM","06-04-2026 18:00:00",23.041137,72.456691,CO,12,30,15
India,Gujarat,Ahmedabad,"SAC ISRO Satellite, Ahmedabad - IITM","06-04-2026 18:00:00",23.023389,72.515201,PM10,11,46,26
India,Gujarat,Ahmedabad,"SVPI Airport Hansol, Ahmedabad - IITM","06-04-2026 18:00:00",23.076793,72.627874,PM2.5,36,73,50
India,Gujarat,Ahmedabad,"SVPI Airport Hansol, Ahmedabad - IITM","06-04-2026 18:00:00",23.076793,72.627874,SO2,6,88,18
India,Gujarat,Ahmedabad,"SVPI Airport Hansol, Ahmedabad - IITM","06-04-2026 18:00:00",23.076793,72.627874,OZONE,4,74,68
India,Gujarat,Ankleshwar,"GIDC, Ankleshwar - GPCB","06-04-2026 18:00:00",21.613267,73.010555,PM2.5,32,84,64
India,Gujarat,Ankleshwar,"GIDC, Ankleshwar - GPCB","06-04-2026 18:00:00",21.613267,73.010555,PM10,71,110,92
India,Gujarat,Bhavnagar,"Vidhyanagar, Bhavnagar - Nexteng Enviro","06-04-2026 18:00:00",21.755417,72.139056,CO,53,56,55
India,Gujarat,Gandhinagar,"GIFT City, Gandhinagar - IITM","06-04-2026 18:00:00",23.163798,72.677768,NO2,14,56,26
India,Gujarat,Gandhinagar,"GIFT City, Gandhinagar - IITM","06-04-2026 18:00:00",23.163798,72.677768,OZONE,1,66,41
India,Gujarat,Gandhinagar,"IIPHG Lekawada, Gandhinagar - IITM","06-04-2026 18:00:00",23.243639,72.68994,SO2,3,12,5
India,Gujarat,Mehsana,"Sadanand Nagar, Mehsana - Nexteng Enviro","06-04-2026 18:00:00",23.593150,72.372792,NO2,35,52,43
India,Gujarat,Mehsana,"Sadanand Nagar, Mehsana - Nexteng Enviro","06-04-2026 18:00:00",23.593150,72.372792,CO,52,60,53
India,Gujarat,Nandesari,"GIDC, Nandesari - Nandesari Ind. Association","06-04-2026 18:00:00",22.410802,73.097923,NO2,6,239,42
India,Delhi,Delhi,"Major Dhyan Chand National Stadium, Delhi - DPCC","06-04-2026 18:00:00",28.611281,77.237738,NO2,23,128,69
India,Delhi,Delhi,"Mandir Marg, Delhi - DPCC","06-04-2026 18:00:00",28.636429,77.201067,PM10,62,147,100
India,Delhi,Delhi,"Mandir Marg, Delhi - DPCC","06-04-2026 18:00:00",28.636429,77.201067,SO2,4,42,26
India,Delhi,Delhi,"Mundka, Delhi - DPCC","06-04-2026 18:00:00",28.684678,77.076574,NO2,32,73,50
India,Delhi,Delhi,"Mundka, Delhi - DPCC","06-04-2026 18:00:00",28.684678,77.076574,SO2,17,106,37
India,Delhi,Delhi,"NSIT Dwarka, Delhi - CPCB","06-04-2026 18:00:00",28.60909,77.0325413,PM10,59,265,154
India,Delhi,Delhi,"NSUT Jaffarpur, Delhi - DPCC","06-04-2026 18:00:00","28.594004 ","76.909423 ",PM10,17,213,103
India,Delhi,Delhi,"NSUT Jaffarpur, Delhi - DPCC","06-04-2026 18:00:00","28.594004 ","76.909423 ",NO2,1,105,34
India,Delhi,Delhi,"Najafgarh, Delhi - DPCC","06-04-2026 18:00:00",28.570173,76.933762,NH3,9,11,10
India,Delhi,Delhi,"Nehru Nagar, Delhi - DPCC","06-04-2026 18:00:00",28.567890,77.250515,SO2,2,26,12
India,Delhi,Delhi,"Nehru Nagar, Delhi - DPCC","06-04-2026 18:00:00",28.567890,77.250515,CO,34,105,53
India,Delhi,Delhi,"New Moti Bagh, Delhi - MHUA","06-04-2026 18:00:00",28.57834,77.18400,CO,14,70,19
India,Delhi,Delhi,"North Campus, DU, Delhi - IMD","06-04-2026 18:00:00",28.6573814,77.1585447,PM10,NA,NA,NA
India,Delhi,Delhi,"Okhla Phase-2, Delhi - DPCC","06-04-2026 18:00:00",28.530785,77.271255,PM10,62,223,129
India,Delhi,Delhi,"Patparganj, Delhi - DPCC","06-04-2026 18:00:00",28.623763,77.287209,NH3,6,8,7
India,Delhi,Delhi,"Wazirpur, Delhi - DPCC","06-04-2026 18:00:00",28.699793,77.165453,PM10,135,303,186
India,Delhi,Delhi,"Wazirpur, Delhi - DPCC","06-04-2026 18:00:00",28.699793,77.165453,SO2,7,31,20
India,Delhi,Delhi,"Wazirpur, Delhi - DPCC","06-04-2026 18:00:00",28.699793,77.165453,OZONE,4,89,84
India,Gujarat,Ahmedabad,"Chandkheda, Ahmedabad - IITM","06-04-2026 18:00:00",23.107969,72.574648,PM2.5,14,78,39
India,Gujarat,Ahmedabad,"Chandkheda, Ahmedabad - IITM","06-04-2026 18:00:00",23.107969,72.574648,PM10,76,174,122
India,Gujarat,Ahmedabad,"Chandkheda, Ahmedabad - IITM","06-04-2026 18:00:00",23.107969,72.574648,SO2,5,22,9
India,Gujarat,Ahmedabad,"Gyaspur, Ahmedabad - IITM","06-04-2026 18:00:00",22.977134,72.553024,OZONE,1,58,49
India,Gujarat,Ahmedabad,"Raikhad, Ahmedabad - IITM","06-04-2026 18:00:00",23.020509,72.579261,NO2,8,110,38
India,Delhi,Delhi,"Shadipur, Delhi - CPCB","06-04-2026 18:00:00",28.6514781,77.1473105,OZONE,6,36,33
India,Delhi,Delhi,"Sonia Vihar, Delhi - DPCC","06-04-2026 18:00:00",28.710508,77.249485,SO2,20,49,29
India,Delhi,Delhi,"Sri Aurobindo Marg, Delhi - DPCC","06-04-2026 18:00:00",28.531346,77.190156,NO2,34,78,54
India,Delhi,Delhi,"Talkatora Garden, Delhi - DPCC","06-04-2026 18:00:00",28.621810,77.1944633,OZONE,2,15,13
India,Delhi,Delhi,"Vivek Vihar, Delhi - DPCC","06-04-2026 18:00:00",28.672342,77.315260,PM2.5,30,336,141
India,Delhi,Delhi,"Vivek Vihar, Delhi - DPCC","06-04-2026 18:00:00",28.672342,77.315260,NH3,6,8,7
India,Delhi,Delhi,"Vivek Vihar, Delhi - DPCC","06-04-2026 18:00:00",28.672342,77.315260,SO2,13,45,21
India,Delhi,Delhi,"JNU, Delhi - DPCC","06-04-2026 18:00:00","28.540721 ","77.168544 ",OZONE,3,37,34
India,Delhi,Delhi,"Jahangirpuri, Delhi - DPCC","06-04-2026 18:00:00",28.732820,77.170633,PM10,75,319,173
India,Delhi,Delhi,"Jahangirpuri, Delhi - DPCC","06-04-2026 18:00:00",28.732820,77.170633,NO2,24,91,58
India,Delhi,Delhi,"Jahangirpuri, Delhi - DPCC","06-04-2026 18:00:00",28.732820,77.170633,CO,14,60,17
India,Delhi,Delhi,"Jahangirpuri, Delhi - DPCC","06-04-2026 18:00:00",28.732820,77.170633,OZONE,6,88,85
India,Delhi,Delhi,"Jawaharlal Nehru Stadium, Delhi - DPCC","06-04-2026 18:00:00",28.580280,77.233829,PM10,62,189,114
India,Delhi,Delhi,"Punjabi Bagh, Delhi - DPCC","06-04-2026 18:00:00",28.674045,77.131023,NO2,11,53,33
India,Delhi,Delhi,"Pusa, Delhi - IMD","06-04-2026 18:00:00",28.636110,77.173332,PM10,58,159,95
India,Delhi,Delhi,"R K Puram, Delhi - DPCC","06-04-2026 18:00:00",28.563262,77.186937,CO,30,116,47
India,Delhi,Delhi,"ITO, Delhi - CPCB","06-04-2026 18:00:00",28.628624,77.241060,PM2.5,26,211,80
India,Delhi,Delhi,"ITO, Delhi - CPCB","06-04-2026 18:00:00",28.628624,77.241060,NO2,34,96,51
India,Delhi,Delhi,"JNU, Delhi - DPCC","06-04-2026 18:00:00","28.540721 ","77.168544 ",NO2,6,44,24
India,Haryana,Sonipat,"Murthal, Sonipat - HSPCB","06-04-2026 18:00:00",29.027200,77.062100,PM2.5,61,301,157
India,Haryana,Sonipat,"Murthal, Sonipat - HSPCB","06-04-2026 18:00:00",29.027200,77.062100,NO2,12,13,12
India,Haryana,"Yamuna Nagar","Gobind Pura, Yamuna Nagar - HSPCB","06-04-2026 18:00:00",30.1480566,77.2893471,PM2.5,54,352,123
India,"Himachal Pradesh",Baddi,"HIMUDA Complex Phase-1, Baddi - HPPCB","06-04-2026 18:00:00",30.943887,76.801991,SO2,26,30,28
India,Jammu_and_Kashmir,Pampore,"Khrew, Pampore - JKPCC","06-04-2026 18:00:00",34.031606,75.009712,PM2.5,8,91,47
India,Jammu_and_Kashmir,Pampore,"Khrew, Pampore - JKPCC","06-04-2026 18:00:00",34.031606,75.009712,NO2,11,29,16
India,Jammu_and_Kashmir,Srinagar,"Rajbagh, Srinagar - JKPCC","06-04-2026 18:00:00",34.066206,74.819820,PM10,19,33,23
India,Jammu_and_Kashmir,Srinagar,"Rajbagh, Srinagar - JKPCC","06-04-2026 18:00:00",34.066206,74.819820,SO2,3,4,3
India,Jharkhand,Dhanbad,"Sardar Patel Nagar, Dhanbad - JSPCB","06-04-2026 18:00:00",23.80569,86.44268,PM10,32,281,94
India,Jharkhand,Dhanbad,"Sardar Patel Nagar, Dhanbad - JSPCB","06-04-2026 18:00:00",23.80569,86.44268,NO2,92,258,112
India,Gujarat,Vadodara,"Bapunagar, Vadodara - Nexteng Enviro","06-04-2026 18:00:00",22.320153,73.216285,OZONE,2,10,8
India,Gujarat,Vapi,"Phase-1 GIDC, Vapi - GPCB","06-04-2026 18:00:00",20.362421,72.918013,NH3,2,4,3
India,Haryana,Ambala,"Patti Mehar, Ambala - HSPCB","06-04-2026 18:00:00",30.379589,76.778328,NH3,7,8,8
India,Haryana,Bahadurgarh,"Arya Nagar, Bahadurgarh - HSPCB","06-04-2026 18:00:00",28.6701,76.9254,NO2,13,14,13
India,Haryana,Ballabgarh,"Nathu Colony, Ballabgarh - HSPCB","06-04-2026 18:00:00",28.3419248,77.319699,PM10,106,393,205
India,Haryana,Ballabgarh,"Nathu Colony, Ballabgarh - HSPCB","06-04-2026 18:00:00",28.3419248,77.319699,SO2,1,6,4
India,Haryana,Ballabgarh,"Nathu Colony, Ballabgarh - HSPCB","06-04-2026 18:00:00",28.3419248,77.319699,OZONE,3,33,26
India,Gujarat,Nandesari,"GIDC, Nandesari - Nandesari Ind. Association","06-04-2026 18:00:00",22.410802,73.097923,SO2,3,110,18
India,Gujarat,Rajkot,"Mavdi, Rajkot - Nexteng Enviro ","06-04-2026 18:00:00",22.248853,70.776774,SO2,9,32,17
India,Gujarat,Surat,"Katargam, Surat - Nexteng Enviro","06-04-2026 18:00:00","21.217779 ","72.834787 ",PM2.5,9,77,38
India,Gujarat,Surat,"Katargam, Surat - Nexteng Enviro","06-04-2026 18:00:00","21.217779 ","72.834787 ",NO2,1,30,9
India,Gujarat,Surat,"Katargam, Surat - Nexteng Enviro","06-04-2026 18:00:00","21.217779 ","72.834787 ",SO2,5,13,8
India,Gujarat,Surat,"Science Center, Surat - SMC","06-04-2026 18:00:00",21.170046,72.795405,PM2.5,22,67,41
India,Gujarat,Vadodara,"Bapunagar, Vadodara - Nexteng Enviro","06-04-2026 18:00:00",22.320153,73.216285,NH3,2,3,3
India,Haryana,Faridabad,"Sector 30, Faridabad - HSPCB","06-04-2026 18:00:00",28.4417,77.3217,OZONE,10,10,10
India,Haryana,Gurugram,"NISE Gwal Pahari, Gurugram - IMD","06-04-2026 18:00:00",28.422681,77.148944,NO2,6,41,19
India,Haryana,Gurugram,"NISE Gwal Pahari, Gurugram - IMD","06-04-2026 18:00:00",28.422681,77.148944,OZONE,11,83,70
India,Haryana,Gurugram,"Sector-51, Gurugram - HSPCB","06-04-2026 18:00:00",28.4227,77.0667,NO2,4,10,6
India,Haryana,Gurugram,"Teri Gram, Gurugram - HSPCB","06-04-2026 18:00:00",28.4275,77.1465,NO2,36,76,53
India,Haryana,Gurugram,"Teri Gram, Gurugram - HSPCB","06-04-2026 18:00:00",28.4275,77.1465,OZONE,10,38,28
India,Haryana,Gurugram,"Vikas Sadan, Gurugram - HSPCB","06-04-2026 18:00:00",28.4501238,77.0263051,PM10,46,189,101
India,Haryana,"Charkhi Dadri","Mini Secretariat, Charkhi Dadri - HSPCB","06-04-2026 18:00:00",28.593883,76.270653,NH3,5,8,6
India,Haryana,"Charkhi Dadri","Mini Secretariat, Charkhi Dadri - HSPCB","06-04-2026 18:00:00",28.593883,76.270653,SO2,10,11,11
India,Haryana,Dharuhera,"Municipal Corporation Office, Dharuhera -  HSPCB","06-04-2026 18:00:00",28.206800,76.799700,PM2.5,45,182,93
India,Haryana,Faridabad,"New Industrial Town, Faridabad - HSPCB","06-04-2026 18:00:00",28.39072,77.30059,PM10,106,116,112
India,Haryana,Faridabad,"New Industrial Town, Faridabad - HSPCB","06-04-2026 18:00:00",28.39072,77.30059,NO2,24,27,25
India,Haryana,Faridabad,"Sector 11, Faridabad - HSPCB","06-04-2026 18:00:00",28.376058,77.315741,NH3,9,10,10
India,Haryana,Manesar,"Sector-2 IMT, Manesar - HSPCB","06-04-2026 18:00:00",28.360699,76.936090,PM10,31,128,81
India,Haryana,Manesar,"Sector-2 IMT, Manesar - HSPCB","06-04-2026 18:00:00",28.360699,76.936090,NH3,6,8,7
India,Haryana,Palwal,"Shyam Nagar, Palwal - HSPCB","06-04-2026 18:00:00",28.1485564,77.3320667,NH3,8,9,9
India,Haryana,Panchgaon,"Amity University, Panchgaon - IITM","06-04-2026 18:00:00",28.3153,76.9143,OZONE,1,84,75
India,Haryana,Panchkula,"Sector-6, Panchkula - HSPCB ","06-04-2026 18:00:00",30.7057778,76.8531805555555,CO,8,39,24
India,Haryana,Gurugram,"Vikas Sadan, Gurugram - HSPCB","06-04-2026 18:00:00",28.4501238,77.0263051,OZONE,4,31,24
India,Haryana,Kurukshetra,"Sector-7, Kurukshetra - HSPCB","06-04-2026 18:00:00",29.966942,76.875879,PM10,59,116,92
India,Haryana,Panipat,"Sector-18, Panipat - HSPCB","06-04-2026 18:00:00",29.432304,76.972765,SO2,NA,NA,NA
India,Haryana,Rohtak,"MD University, Rohtak - HSPCB","06-04-2026 18:00:00",28.52123,76.37138,NO2,10,14,12
India,Haryana,Sirsa,"F-Block, Sirsa - HSPCB","06-04-2026 18:00:00",29.536400,75.015800,PM2.5,15,67,39
India,Haryana,Sirsa,"F-Block, Sirsa - HSPCB","06-04-2026 18:00:00",29.536400,75.015800,PM10,26,110,67
India,Karnataka,Bengaluru,"Kasturi Nagar, Bengaluru - KSPCB","06-04-2026 18:00:00",13.003872,77.664217,OZONE,20,21,21
India,Karnataka,Bengaluru,"Peenya, Bengaluru - CPCB","06-04-2026 18:00:00",13.0270199,77.494094,NH3,2,5,4
India,Karnataka,Bengaluru,"RVCE-Mailasandra, Bengaluru - KSPCB","06-04-2026 18:00:00",12.921418,77.502466,NO2,20,26,26
India,Karnataka,Bengaluru,"RVCE-Mailasandra, Bengaluru - KSPCB","06-04-2026 18:00:00",12.921418,77.502466,NH3,3,4,4
India,Karnataka,Bengaluru,"RVCE-Mailasandra, Bengaluru - KSPCB","06-04-2026 18:00:00",12.921418,77.502466,SO2,5,6,6
India,Karnataka,Bengaluru,"RVCE-Mailasandra, Bengaluru - KSPCB","06-04-2026 18:00:00",12.921418,77.502466,CO,13,62,20
India,Karnataka,Bengaluru,"Sanegurava Halli, Bengaluru - KSPCB","06-04-2026 18:00:00",12.990328,77.5431385,PM10,51,52,51
India,Karnataka,Bengaluru,"Sanegurava Halli, Bengaluru - KSPCB","06-04-2026 18:00:00",12.990328,77.5431385,SO2,6,6,6
India,Karnataka,Bengaluru,"Sanegurava Halli, Bengaluru - KSPCB","06-04-2026 18:00:00",12.990328,77.5431385,CO,8,42,17
India,Karnataka,Bengaluru,"Silk Board, Bengaluru - KSPCB","06-04-2026 18:00:00",12.917348,77.622813,PM2.5,50,214,88
India,Karnataka,Chamarajanagar,"Urban, Chamarajanagar - KSPCB","06-04-2026 18:00:00",11.55358,76.55521,NO2,14,36,22
India,Karnataka,Chamarajanagar,"Urban, Chamarajanagar - KSPCB","06-04-2026 18:00:00",11.55358,76.55521,CO,12,25,23
India,Karnataka,Chamarajanagar,"Urban, Chamarajanagar - KSPCB","06-04-2026 18:00:00",11.55358,76.55521,OZONE,13,38,33
India,"Madhya Pradesh",Gwalior,"Deen Dayal Nagar, Gwalior - MPPCB","06-04-2026 18:00:00",26.259242,78.216432,NH3,6,9,7
India,"Madhya Pradesh",Gwalior,"Deen Dayal Nagar, Gwalior - MPPCB","06-04-2026 18:00:00",26.259242,78.216432,SO2,6,10,8
India,"Madhya Pradesh",Gwalior,"Maharaj Bada, Gwalior - MPPCB","06-04-2026 18:00:00",26.200388,78.147714,NO2,15,76,46
India,"Madhya Pradesh",Gwalior,"Maharaj Bada, Gwalior - MPPCB","06-04-2026 18:00:00",26.200388,78.147714,SO2,NA,NA,NA
India,"Madhya Pradesh",Gwalior,"Maharaj Bada, Gwalior - MPPCB","06-04-2026 18:00:00",26.200388,78.147714,OZONE,29,148,123
India,"Madhya Pradesh",Indore,"Airport Area, Indore - IMC","06-04-2026 18:00:00",22.7289,75.8076,PM2.5,58,340,140
India,"Madhya Pradesh",Indore,"Airport Area, Indore - IMC","06-04-2026 18:00:00",22.7289,75.8076,PM10,43,156,80
India,"Madhya Pradesh",Indore,"Airport Area, Indore - IMC","06-04-2026 18:00:00",22.7289,75.8076,OZONE,11,20,17
India,"Madhya Pradesh",Indore,"Chhoti Gwaltoli, Indore - MPPCB","06-04-2026 18:00:00",22.4310,75.5213,SO2,8,34,16
India,"Madhya Pradesh",Indore,"Maguda Nagar, Indore - IMC","06-04-2026 18:00:00",22.7524,75.8872,PM10,28,146,67
India,Karnataka,Yadgir,"Collector Office, Yadgir - KSPCB","06-04-2026 18:00:00",16.7602,77.1428,SO2,7,19,13
India,Kerala,Kannur,"Thavakkara, Kannur - Kerala PCB","06-04-2026 18:00:00",11.875000,75.373200,CO,10,14,13
India,Kerala,Thiruvananthapuram,"Plammoodu, Thiruvananthapuram - Kerala PCB","06-04-2026 18:00:00",8.5149093,76.9435879,PM10,31,90,44
India,Kerala,Thiruvananthapuram,"Plammoodu, Thiruvananthapuram - Kerala PCB","06-04-2026 18:00:00",8.5149093,76.9435879,CO,6,54,22
India,Kerala,Thrissur,"Corporation Ground, Thrissur - Kerala PCB","06-04-2026 18:00:00",10.532400,76.215900,PM10,57,80,73
India,"Madhya Pradesh",Bhopal,"Idgah Hills, Bhopal - MPPCB","06-04-2026 18:00:00",23.264759,77.381568,PM10,60,114,85
India,Karnataka,Bengaluru,"Hebbal, Bengaluru - KSPCB","06-04-2026 18:00:00",13.029152,77.585901,PM2.5,18,98,52
India,Karnataka,Bengaluru,"Hebbal, Bengaluru - KSPCB","06-04-2026 18:00:00",13.029152,77.585901,NO2,16,109,37
India,Karnataka,Bengaluru,"Hebbal, Bengaluru - KSPCB","06-04-2026 18:00:00",13.029152,77.585901,OZONE,9,11,10
India,Karnataka,Bengaluru,"Jigani, Bengaluru - KSPCB","06-04-2026 18:00:00",12.7816279,77.6299145,PM2.5,38,59,49
India,Karnataka,Bengaluru,"Jigani, Bengaluru - KSPCB","06-04-2026 18:00:00",12.7816279,77.6299145,NO2,33,34,33
India,Karnataka,Bengaluru,"Jigani, Bengaluru - KSPCB","06-04-2026 18:00:00",12.7816279,77.6299145,NH3,6,6,6
India,Karnataka,Bengaluru,"Kasturi Nagar, Bengaluru - KSPCB","06-04-2026 18:00:00",13.003872,77.664217,PM2.5,47,49,48
India,Karnataka,Bengaluru,"Kasturi Nagar, Bengaluru - KSPCB","06-04-2026 18:00:00",13.003872,77.664217,NH3,3,3,3
India,Jharkhand,Jorapokhar,"Tata Stadium, Jorapokhar - JSPCB","06-04-2026 18:00:00",23.707909,86.414670,SO2,NA,NA,NA
India,Karnataka,Bengaluru,"BTM Layout, Bengaluru - CPCB","06-04-2026 18:00:00",12.9135218,77.5950804,OZONE,26,27,27
India,Karnataka,Bengaluru,"BWSSB Kadabesanahalli, Bengaluru - CPCB","06-04-2026 18:00:00",12.9352049,77.6814488,CO,34,37,36
India,Karnataka,Bengaluru,"BWSSB Kadabesanahalli, Bengaluru - CPCB","06-04-2026 18:00:00",12.9352049,77.6814488,OZONE,10,42,37
India,Karnataka,Bengaluru,"Bapuji Nagar, Bengaluru - KSPCB","06-04-2026 18:00:00",12.951913,77.539784,PM2.5,25,85,42
India,Karnataka,Bengaluru,"Bapuji Nagar, Bengaluru - KSPCB","06-04-2026 18:00:00",12.951913,77.539784,PM10,64,158,98
India,Karnataka,Mangalore,"Kadri, Mangalore - KSPCB","06-04-2026 18:00:00",12.889250,74.853000,PM2.5,23,45,34
India,Karnataka,Mysuru,"Hebbal 1st Stage, Mysuru - KSPCB","06-04-2026 18:00:00",12.21041,76.37376,NO2,10,25,18
India,Karnataka,Ramanagara,"Vijay Nagar, Ramanagara - KSPCB","06-04-2026 18:00:00",12.733409,77.298051,NH3,3,5,4
India,Karnataka,Ramanagara,"Vijay Nagar, Ramanagara - KSPCB","06-04-2026 18:00:00",12.733409,77.298051,SO2,17,22,20
India,"Madhya Pradesh",Bhopal,"Paryavaran Parisar, Bhopal - MPPCB","06-04-2026 18:00:00",23.210494,77.425409,OZONE,48,72,56
India,"Madhya Pradesh",Bhopal,"T T Nagar, Bhopal - MPPCB","06-04-2026 18:00:00",23.233584,77.400574,NO2,19,55,30
India,"Madhya Pradesh",Bhopal,"T T Nagar, Bhopal - MPPCB","06-04-2026 18:00:00",23.233584,77.400574,NH3,3,5,5
India,"Madhya Pradesh",Damoh,"Shrivastav Colony, Damoh - MPPCB","06-04-2026 18:00:00",23.81748678,79.446246,SO2,NA,NA,NA
India,Karnataka,Chikkamagaluru,"Kalyana Nagara, Chikkamagaluru - KSPCB","06-04-2026 18:00:00",13.328028,75.797056,NO2,18,25,19
India,Karnataka,Chikkamagaluru,"Kalyana Nagara, Chikkamagaluru - KSPCB","06-04-2026 18:00:00",13.328028,75.797056,NH3,2,3,2
India,Karnataka,Dharwad,"Kalabhavan, Dharwad - KSPCB","06-04-2026 18:00:00",15.459706,75.008381,SO2,NA,NA,NA
India,Karnataka,Kalaburagi,"Mahatma Basaveswar Colony, Kalaburgi - KSPCB","06-04-2026 18:00:00",17.336318,76.847397,PM10,27,73,51
India,"Madhya Pradesh",Jabalpur,"Marhatal, Jabalpur - MPPCB","06-04-2026 18:00:00",23.168606,79.932247,OZONE,20,32,21
India,"Madhya Pradesh",Jabalpur,"Suhagi, Jabalpur - JMC","06-04-2026 18:00:00",23.218135,79.957770,NH3,5,6,5
India,"Madhya Pradesh",Jabalpur,"Suhagi, Jabalpur - JMC","06-04-2026 18:00:00",23.218135,79.957770,OZONE,1,83,76
India,"Madhya Pradesh",Katni,"Gole Bazar, Katni - MPPCB","06-04-2026 18:00:00",23.50016,80.23284,NH3,2,6,5
India,"Madhya Pradesh",Mandideep,"Sector-D Industrial Area, Mandideep - MPPCB","06-04-2026 18:00:00",23.108440,77.511428,NH3,8,10,9
India,"Madhya Pradesh",Mandideep,"Sector-D Industrial Area, Mandideep - MPPCB","06-04-2026 18:00:00",23.108440,77.511428,OZONE,16,103,95
India,"Madhya Pradesh",Pithampur,"Sector-2 Industrial Area, Pithampur - MPPCB","06-04-2026 18:00:00",22.624758,75.675238,PM10,64,173,119
India,"Madhya Pradesh",Pithampur,"Sector-2 Industrial Area, Pithampur - MPPCB","06-04-2026 18:00:00",22.624758,75.675238,CO,8,65,23
India,"Madhya Pradesh",Ratlam,"Shasthri Nagar, Ratlam - IPCA Lab","06-04-2026 18:00:00",23.331731,75.045981,NO2,12,31,16
India,"Madhya Pradesh",Ratlam,"Shasthri Nagar, Ratlam - IPCA Lab","06-04-2026 18:00:00",23.331731,75.045981,SO2,34,37,35
India,"Madhya Pradesh",Sagar,"Civil Lines, Sagar - MPPCB","06-04-2026 18:00:00",23.838586,78.759431,NO2,NA,NA,NA
India,Maharashtra,Jalna,"Old MIDC, Jalna - MPCB","06-04-2026 18:00:00",19.854616,75.905894,OZONE,11,55,52
India,Maharashtra,Kalyan,"Pimpleshwar Mandir, Kalyan - MPCB","06-04-2026 18:00:00",19.192056,72.9585188,OZONE,1,48,34
India,Maharashtra,Kolhapur,"Shivaji University, Kolhapur - MPCB","06-04-2026 18:00:00",16.6870449,74.2505872,PM2.5,19,51,28
India,Maharashtra,Kolhapur,"Shivaji University, Kolhapur - MPCB","06-04-2026 18:00:00",16.6870449,74.2505872,PM10,33,75,55
India,Maharashtra,Kolhapur,"Shivaji University, Kolhapur - MPCB","06-04-2026 18:00:00",16.6870449,74.2505872,NO2,13,44,27
India,Maharashtra,Kolhapur,"Shivaji University, Kolhapur - MPCB","06-04-2026 18:00:00",16.6870449,74.2505872,CO,6,28,18
India,Maharashtra,Kolhapur,"Sinchan Bhavan, Kolhapur - MPCB","06-04-2026 18:00:00",16.7143745,74.2426398,NO2,NA,NA,NA
India,Maharashtra,Latur,"Sawe Wadi, Latur - MPCB","06-04-2026 18:00:00",18.39963,76.57452,PM2.5,31,86,49
India,"Madhya Pradesh",Sagar,"Civil Lines, Sagar - MPPCB","06-04-2026 18:00:00",23.838586,78.759431,OZONE,41,188,102
India,"Madhya Pradesh",Sagar,"Deen Dayal Nagar, Sagar - MPPCB","06-04-2026 18:00:00",23.8640158,78.80289321,CO,62,108,78
India,"Madhya Pradesh",Satna,"Bandhavgar Colony, Satna - Birla Cement","06-04-2026 18:00:00",24.58434363,80.8549414,PM2.5,48,52,50
India,"Madhya Pradesh",Singrauli,"Suryakiran Bhawan NCL, Singrauli - MPPCB","06-04-2026 18:00:00",24.108970,82.645580,PM2.5,16,234,108
India,"Madhya Pradesh",Ujjain,"Mahashweta Nagar, Ujjain - MPPCB","06-04-2026 18:00:00",23.1633321,75.800225,PM10,NA,NA,NA
India,Maharashtra,Chandrapur,"MIDC Khutala, Chandrapur - MPCB","06-04-2026 18:00:00",19.9775302,79.2337086,NH3,NA,NA,NA
India,Maharashtra,Dhule,"Deopur, Dhule - MPCB","06-04-2026 18:00:00",20.918946,74.776388,PM10,NA,NA,NA
India,Maharashtra,Dhule,"Deopur, Dhule - MPCB","06-04-2026 18:00:00",20.918946,74.776388,NO2,5,15,8
India,Maharashtra,Dhule,"Deopur, Dhule - MPCB","06-04-2026 18:00:00",20.918946,74.776388,SO2,1,88,11
India,Maharashtra,Dombivli,"Kalu Nagar, Dombivli - MPCB","06-04-2026 18:00:00","19.2268427 ","73.0788456 ",NO2,11,47,28
India,Maharashtra,Hingoli,"Ashta Vinayak Nagar, Hingoli - MPCB","06-04-2026 18:00:00",19.710842,77.151824,NH3,3,4,3
India,Maharashtra,Hingoli,"Ashta Vinayak Nagar, Hingoli - MPCB","06-04-2026 18:00:00",19.710842,77.151824,OZONE,5,167,167
India,Maharashtra,Aurangabad,"MIDC Chilkalthana, Aurangabad - MPCB","06-04-2026 18:00:00",19.875620,75.387310,CO,6,14,11
India,Maharashtra,Aurangabad,"More Chowk Waluj, Aurangabad - MPCB","06-04-2026 18:00:00",19.8389439,75.244448,PM2.5,35,278,96
India,Maharashtra,Aurangabad,"More Chowk Waluj, Aurangabad - MPCB","06-04-2026 18:00:00",19.8389439,75.244448,NO2,16,179,98
India,Maharashtra,Aurangabad,"Rachnakar Colony, Aurangabad - MPCB","06-04-2026 18:00:00",19.863756,75.321188,OZONE,15,129,97
India,Maharashtra,Badlapur,"Katrap, Badlapur - MPCB","06-04-2026 18:00:00",19.16485,73.23409,NO2,11,31,20
India,"Madhya Pradesh",Indore,"Residency Area, Indore - IMC","06-04-2026 18:00:00",22.7084,75.8815,SO2,12,15,14
India,"Madhya Pradesh",Jabalpur,"Govindh Bhavan Colony, Jabalpur - JMC","06-04-2026 18:00:00",23.163174,79.973061,PM2.5,20,95,55
India,"Madhya Pradesh",Jabalpur,"Gupteshwar, Jabalpur - JMC","06-04-2026 18:00:00",23.142888,79.916147,PM2.5,69,256,115
India,"Madhya Pradesh",Jabalpur,"Gupteshwar, Jabalpur - JMC","06-04-2026 18:00:00",23.142888,79.916147,PM10,83,156,111
India,"Madhya Pradesh",Jabalpur,"Marhatal, Jabalpur - MPPCB","06-04-2026 18:00:00",23.168606,79.932247,PM10,58,196,127
India,Maharashtra,Bhiwandi,"Gokul Nagar, Bhiwandi - MPCB","06-04-2026 18:00:00",19.309073,73.057223,PM2.5,16,82,47
India,Maharashtra,Chandrapur,"Chauhan Colony, Chandrapur - MPCB","06-04-2026 18:00:00",19.962900,79.298714,OZONE,15,20,19
India,Maharashtra,Chandrapur,"MIDC Khutala, Chandrapur - MPCB","06-04-2026 18:00:00",19.9775302,79.2337086,PM2.5,24,64,39
India,Maharashtra,Amravati,"Shri Shivaji Science College, Amravati - MPCB","06-04-2026 18:00:00",20.939198,77.765701,CO,10,62,14
India,Maharashtra,Amravati,"Shri Shivaji Science College, Amravati - MPCB","06-04-2026 18:00:00",20.939198,77.765701,OZONE,3,64,62
India,Maharashtra,Aurangabad,"MIDC Chilkalthana, Aurangabad - MPCB","06-04-2026 18:00:00",19.875620,75.387310,NO2,13,17,15
India,Maharashtra,Akola,"Ramdaspeth, Akola - MPCB","06-04-2026 18:00:00",20.719516,77.000253,NO2,8,33,15
India,Maharashtra,Akola,"Ramdaspeth, Akola - MPCB","06-04-2026 18:00:00",20.719516,77.000253,OZONE,17,82,72
India,Maharashtra,Mumbai,"Borivali East, Mumbai - MPCB","06-04-2026 18:00:00",19.2243333,72.8658113,SO2,NA,NA,NA
India,Maharashtra,Mumbai,"Byculla, Mumbai - BMC","06-04-2026 18:00:00",18.9767,72.8380,PM2.5,10,28,16
India,Maharashtra,Mumbai,"Byculla, Mumbai - BMC","06-04-2026 18:00:00",18.9767,72.8380,CO,31,52,35
India,Maharashtra,Mumbai,"Chakala-Andheri East, Mumbai - IITM","06-04-2026 18:00:00",19.11074,72.86084,OZONE,24,66,51
India,Maharashtra,Mumbai,"Chembur, Mumbai - MPCB","06-04-2026 18:00:00",19.0364585,72.8954371,PM2.5,16,44,32
India,Maharashtra,Mumbai,"Chhatrapati Shivaji Intl. Airport (T2), Mumbai - MPCB","06-04-2026 18:00:00",19.10078,72.87462,PM10,31,72,45
India,Maharashtra,Mumbai,"Chhatrapati Shivaji Intl. Airport (T2), Mumbai - MPCB","06-04-2026 18:00:00",19.10078,72.87462,NO2,26,26,26
India,Maharashtra,Mumbai,"Colaba, Mumbai - MPCB","06-04-2026 18:00:00",18.910000,72.820000,NO2,27,28,28
India,Maharashtra,Mumbai,"Sewri, Mumbai - BMC","06-04-2026 18:00:00",19.000084,72.856730,CO,8,20,12
India,Maharashtra,Mumbai,"Shivaji Nagar, Mumbai - BMC","06-04-2026 18:00:00",19.060498,72.923356,NH3,2,7,4
India,Maharashtra,Mumbai,"Siddharth Nagar-Worli, Mumbai - IITM","06-04-2026 18:00:00",19.000083,72.813993,NH3,2,2,2
India,Maharashtra,Mumbai,"Siddharth Nagar-Worli, Mumbai - IITM","06-04-2026 18:00:00",19.000083,72.813993,OZONE,26,55,38
India,Maharashtra,Mumbai,"Sion, Mumbai - MPCB","06-04-2026 18:00:00",19.047000,72.874600,PM2.5,14,44,23
India,Maharashtra,Mumbai,"Sion, Mumbai - MPCB","06-04-2026 18:00:00",19.047000,72.874600,NH3,7,7,7
India,Maharashtra,Mumbai,"Sion, Mumbai - MPCB","06-04-2026 18:00:00",19.047000,72.874600,SO2,1,102,7
India,Maharashtra,Mumbai,"Vile Parle West, Mumbai - MPCB","06-04-2026 18:00:00",19.10861,72.83622,NO2,11,11,11
India,Maharashtra,Mumbai,"Deonar, Mumbai - IITM","06-04-2026 18:00:00",19.04946,72.9230,OZONE,6,52,42
India,Maharashtra,Mumbai,"Kherwadi_Bandra East, Mumbai - MPCB","06-04-2026 18:00:00",19.0632143,72.8456324,PM2.5,21,55,37
India,Maharashtra,Mumbai,"Kherwadi_Bandra East, Mumbai - MPCB","06-04-2026 18:00:00",19.0632143,72.8456324,SO2,3,5,4
India,Maharashtra,Mumbai,"Kherwadi_Bandra East, Mumbai - MPCB","06-04-2026 18:00:00",19.0632143,72.8456324,OZONE,1,54,43
India,Maharashtra,Mumbai,"Khindipada-Bhandup West, Mumbai - IITM","06-04-2026 18:00:00",19.1653323,72.922099,CO,2,44,12
India,Maharashtra,Mumbai,"Kurla, Mumbai - MPCB","06-04-2026 18:00:00",19.0863,72.8888,PM2.5,20,87,42
India,Maharashtra,Mumbai,"Kurla, Mumbai - MPCB","06-04-2026 18:00:00",19.0863,72.8888,NO2,4,7,5
India,Maharashtra,Mumbai,"Kurla, Mumbai - MPCB","06-04-2026 18:00:00",19.0863,72.8888,NH3,1,2,1
India,Maharashtra,Mumbai,"Worli, Mumbai -MPCB","06-04-2026 18:00:00",18.9942180,72.8158167,PM10,6,112,34
India,Maharashtra,Nagpur,"Ambazari, Nagpur - MPCB","06-04-2026 18:00:00",21.121801,79.04952,CO,7,14,11
India,Maharashtra,Nagpur,"Mahal, Nagpur - MPCB","06-04-2026 18:00:00",21.14472,79.107595,PM10,44,177,96
India,Maharashtra,Nagpur,"Mahal, Nagpur - MPCB","06-04-2026 18:00:00",21.14472,79.107595,NO2,16,104,44
India,Maharashtra,Nagpur,"Ram Nagar, Nagpur - MPCB","06-04-2026 18:00:00",21.143383,79.048912,NO2,6,53,17
India,Maharashtra,Nagpur,"Ram Nagar, Nagpur - MPCB","06-04-2026 18:00:00",21.143383,79.048912,NH3,4,4,4
India,Maharashtra,Nanded,"Sneh Nagar, Nanded - MPCB","06-04-2026 18:00:00",19.173852,77.296291,PM2.5,6,61,45
India,Maharashtra,"Navi Mumbai","Kopripada-Vashi, Navi Mumbai - MPCB","06-04-2026 18:00:00",19.090337,73.014232,SO2,1,3,2
India,Maharashtra,"Navi Mumbai","Kopripada-Vashi, Navi Mumbai - MPCB","06-04-2026 18:00:00",19.090337,73.014232,OZONE,2,48,41
India,Maharashtra,"Navi Mumbai","Mahape, Navi Mumbai - MPCB","06-04-2026 18:00:00",19.1135051,73.008978,PM10,31,105,63
India,Maharashtra,"Navi Mumbai","Sanpada, Navi Mumbai - MPCB","06-04-2026 18:00:00",19.0575752,73.0151367,PM2.5,NA,NA,NA
India,Maharashtra,"Navi Mumbai","Sanpada, Navi Mumbai - MPCB","06-04-2026 18:00:00",19.0575752,73.0151367,NH3,NA,NA,NA
India,Maharashtra,"Navi Mumbai","Tondare-Taloja, Navi Mumbai - MPCB","06-04-2026 18:00:00",19.0630,73.1209,PM2.5,NA,NA,NA
India,Maharashtra,"Navi Mumbai","Tondare-Taloja, Navi Mumbai - MPCB","06-04-2026 18:00:00",19.0630,73.1209,CO,15,32,25
India,Maharashtra,Mumbai,"Mazgaon, Mumbai - IITM","06-04-2026 18:00:00",18.96702,72.84214,SO2,6,14,11
India,Maharashtra,Mumbai,"Mazgaon, Mumbai - IITM","06-04-2026 18:00:00",18.96702,72.84214,OZONE,42,75,59
India,Maharashtra,Mumbai,"Mindspace-Malad West, Mumbai - MPCB","06-04-2026 18:00:00",19.1878657,72.8304069,SO2,9,17,13
India,Maharashtra,Mumbai,"Mulund West, Mumbai - MPCB","06-04-2026 18:00:00",19.1750,72.9419,PM2.5,11,88,29
India,Maharashtra,Mumbai,"Mulund West, Mumbai - MPCB","06-04-2026 18:00:00",19.1750,72.9419,PM10,NA,NA,NA
India,Maharashtra,Mumbai,"Navy Nagar-Colaba, Mumbai - IITM","06-04-2026 18:00:00",18.897756,72.813320,PM2.5,22,83,34
India,Maharashtra,Mumbai,"Navy Nagar-Colaba, Mumbai - IITM","06-04-2026 18:00:00",18.897756,72.813320,SO2,5,20,13
India,Maharashtra,Nanded,"Sneh Nagar, Nanded - MPCB","06-04-2026 18:00:00",19.173852,77.296291,NO2,NA,NA,NA
India,Maharashtra,Nanded,"Sneh Nagar, Nanded - MPCB","06-04-2026 18:00:00",19.173852,77.296291,CO,18,30,24
India,Maharashtra,Nashik,"Gangapur Road, Nashik - MPCB","06-04-2026 18:00:00",20.0073285,73.7762427,PM2.5,9,59,29
India,Maharashtra,Nashik,"Gangapur Road, Nashik - MPCB","06-04-2026 18:00:00",20.0073285,73.7762427,NO2,5,5,5
India,Maharashtra,Nashik,"Hirawadi, Nashik - MPCB","06-04-2026 18:00:00",20.021503,73.813844,PM2.5,24,64,41
India,Maharashtra,Nashik,"Hirawadi, Nashik - MPCB","06-04-2026 18:00:00",20.021503,73.813844,SO2,2,13,5
India,Maharashtra,Nashik,"MIDC Ambad, Nashik - MPCB","06-04-2026 18:00:00",19.950220,73.731480,SO2,2,9,6
India,Maharashtra,Malegaon,"Mahesh Nagar, Malegaon - MPCB","06-04-2026 18:00:00",20.555712,74.529236,NH3,NA,NA,NA
India,Maharashtra,Mumbai,"Bandra Kurla Complex, Mumbai - MPCB","06-04-2026 18:00:00",19.065931,72.862131,SO2,1,4,3
India,Maharashtra,Mumbai,"Borivali East, Mumbai - IITM","06-04-2026 18:00:00",19.23241,72.86895,PM2.5,19,57,35
India,Maharashtra,Mumbai,"Borivali East, Mumbai - IITM","06-04-2026 18:00:00",19.23241,72.86895,NH3,4,5,5
India,Maharashtra,Mumbai,"Borivali East, Mumbai - IITM","06-04-2026 18:00:00",19.23241,72.86895,OZONE,30,79,75
India,Maharashtra,Mumbai,"Borivali East, Mumbai - MPCB","06-04-2026 18:00:00",19.2243333,72.8658113,NO2,NA,NA,NA
India,Maharashtra,Pimpri-Chinchwad,"Bhosari, Pune - IITM","06-04-2026 18:00:00",18.640051,73.848956,PM10,29,64,45
India,Maharashtra,Pimpri-Chinchwad,"Bhosari, Pune - IITM","06-04-2026 18:00:00",18.640051,73.848956,NO2,5,15,10
India,Maharashtra,Pimpri-Chinchwad,"Bhumkar Nagar, Pune - IITM","06-04-2026 18:00:00",18.605770,73.749976,CO,11,16,14
India,Maharashtra,Pimpri-Chinchwad,"Savta Mali Nagar, Pimpri-Chinchwad - IITM","06-04-2026 18:00:00",18.614767,73.799516,PM2.5,19,62,32
India,Maharashtra,Pimpri-Chinchwad,"Savta Mali Nagar, Pimpri-Chinchwad - IITM","06-04-2026 18:00:00",18.614767,73.799516,NO2,21,62,33
India,Meghalaya,Shillong,"Lumpyngngad, Shillong - Meghalaya PCB","06-04-2026 18:00:00",25.5586,91.8985,SO2,9,12,10
India,Mizoram,Aizawl,"Sikulpuikawn, Aizawl - Mizoram PCB","06-04-2026 18:00:00",23.7176342,92.7192841,PM2.5,21,55,36
India,Mizoram,Aizawl,"Sikulpuikawn, Aizawl - Mizoram PCB","06-04-2026 18:00:00",23.7176342,92.7192841,PM10,29,60,44
India,Mizoram,Aizawl,"Sikulpuikawn, Aizawl - Mizoram PCB","06-04-2026 18:00:00",23.7176342,92.7192841,NO2,1,1,1
India,Mizoram,Aizawl,"Sikulpuikawn, Aizawl - Mizoram PCB","06-04-2026 18:00:00",23.7176342,92.7192841,SO2,14,16,15
India,Nagaland,Kohima,"PWD Junction, Kohima - NPCB","06-04-2026 18:00:00",25.6635413,94.0989878,NO2,3,5,4
India,Odisha,Angul,"Hakimapada, Angul - OSPCB","06-04-2026 18:00:00",20.832874,85.104082,SO2,4,49,17
India,Odisha,Balasore,"Kalidaspur, Balasore - OSPCB","06-04-2026 18:00:00",21.51161,86.89088,NO2,4,21,10
India,Odisha,Balasore,"Kalidaspur, Balasore - OSPCB","06-04-2026 18:00:00",21.51161,86.89088,CO,40,59,46
India,Odisha,Barbil,"Forest Office, Barbil - OSPCB","06-04-2026 18:00:00",22.1166054,85.3945546,NO2,10,29,19
India,Maharashtra,Ulhasnagar,"Sidhi Vinayak Nagar, Ulhasnagar - MPCB","06-04-2026 18:00:00",19.235581,73.159121,OZONE,7,86,61
India,Maharashtra,Ulhasnagar,"Vithalwadi, Ulhasnagar - MPCB","06-04-2026 18:00:00","19.2307571 ",73.1551920,NO2,13,44,25
India,Maharashtra,Ulhasnagar,"Vithalwadi, Ulhasnagar - MPCB","06-04-2026 18:00:00","19.2307571 ",73.1551920,CO,NA,NA,NA
India,Maharashtra,Virar,"Bolinj, Virar - MPCB","06-04-2026 18:00:00",19.4458210,72.7988231,PM2.5,32,94,59
India,Maharashtra,Virar,"Bolinj, Virar - MPCB","06-04-2026 18:00:00",19.4458210,72.7988231,NO2,9,83,36
India,Maharashtra,Virar,"Bolinj, Virar - MPCB","06-04-2026 18:00:00",19.4458210,72.7988231,NH3,1,104,29
India,Meghalaya,Byrnihat,"15th Mile-Nongthymmai, Byrnihat - Meghalaya PCB","06-04-2026 18:00:00",26.05374,91.86796,NH3,NA,NA,NA
India,Meghalaya,Byrnihat,"15th Mile-Nongthymmai, Byrnihat - Meghalaya PCB","06-04-2026 18:00:00",26.05374,91.86796,CO,15,68,31
India,Meghalaya,Shillong,"JN Stadium, Shillong - Meghalaya PCB","06-04-2026 18:00:00",25.5803419,91.8942571,PM2.5,14,52,28
India,Meghalaya,Shillong,"JN Stadium, Shillong - Meghalaya PCB","06-04-2026 18:00:00",25.5803419,91.8942571,NO2,17,46,36
India,Meghalaya,Shillong,"JN Stadium, Shillong - Meghalaya PCB","06-04-2026 18:00:00",25.5803419,91.8942571,OZONE,NA,NA,NA
India,Maharashtra,Pimpri-Chinchwad,"Thergaon, Pimpri Chinchwad - MPCB","06-04-2026 18:00:00",18.616318,73.765797,PM2.5,18,44,27
India,Maharashtra,Pimpri-Chinchwad,"Thergaon, Pimpri Chinchwad - MPCB","06-04-2026 18:00:00",18.616318,73.765797,SO2,1,2,1
India,Maharashtra,Pimpri-Chinchwad,"Transport Nagar-Nigdi, Pune - IITM","06-04-2026 18:00:00",18.664282,73.763966,PM2.5,8,61,27
India,Maharashtra,Pimpri-Chinchwad,"Transport Nagar-Nigdi, Pune - IITM","06-04-2026 18:00:00",18.664282,73.763966,PM10,24,55,38
India,Maharashtra,Pimpri-Chinchwad,"Transport Nagar-Nigdi, Pune - IITM","06-04-2026 18:00:00",18.664282,73.763966,NO2,16,35,23
India,Maharashtra,Pune,"Dhankawadi, Pune - IITM","06-04-2026 18:00:00",18.459883,73.852193,CO,43,96,71
India,Maharashtra,Pune,"Hadapsar, Pune - IITM","06-04-2026 18:00:00",18.501793,73.927532,PM2.5,18,192,63
India,Maharashtra,Pune,"Hadapsar, Pune - IITM","06-04-2026 18:00:00",18.501793,73.927532,OZONE,4,56,38
India,Maharashtra,Pune,"Katraj Dairy, Pune - MPCB","06-04-2026 18:00:00",18.454450,73.854155,PM10,17,42,30
India,Maharashtra,Pune,"Katraj Dairy, Pune - MPCB","06-04-2026 18:00:00",18.454450,73.854155,CO,8,68,32
India,Maharashtra,Pune,"Panchawati_Pashan, Pune - IITM","06-04-2026 18:00:00",18.536457,73.805454,NO2,7,15,10
India,Maharashtra,Pune,"Revenue Colony-Shivajinagar, Pune - IITM","06-04-2026 18:00:00",18.530085,73.849598,CO,4,36,26
India,Maharashtra,Pune,"Savitribai Phule Pune University, Pune - MPCB","06-04-2026 18:00:00",18.547056,73.826908,PM2.5,14,22,18
India,Maharashtra,Pune,"Savitribai Phule Pune University, Pune - MPCB","06-04-2026 18:00:00",18.547056,73.826908,NH3,1,1,1
India,Maharashtra,Pune,"Savitribai Phule Pune University, Pune - MPCB","06-04-2026 18:00:00",18.547056,73.826908,SO2,1,4,3
India,Maharashtra,Sangli,"Vijay Nagar, Sangli - MPCB","06-04-2026 18:00:00"," 16.5038",74.3623,CO,8,18,10
India,Maharashtra,Solapur,"Dnyaneshwar Nagar, Solapur - MPCB","06-04-2026 18:00:00",17.6336264,75.9132495,NH3,9,40,17
India,Maharashtra,Solapur,"Dnyaneshwar Nagar, Solapur - MPCB","06-04-2026 18:00:00",17.6336264,75.9132495,CO,4,67,9
India,Maharashtra,Solapur,"Ratandeep Housing Society, Solapur - MPCB","06-04-2026 18:00:00",17.65439,75.90649,PM10,35,118,78
India,Maharashtra,Solapur,"Ratandeep Housing Society, Solapur - MPCB","06-04-2026 18:00:00",17.65439,75.90649,NO2,23,131,47
India,Odisha,Brajrajnagar,"GM Office, Brajrajnagar - OSPCB","06-04-2026 18:00:00",21.8004996,83.8396977,NH3,NA,NA,NA
India,Odisha,Byasanagar,"Ferro Chrome Colony, Byasanagar - OSPCB","06-04-2026 18:00:00",20.94185,86.11510,SO2,6,21,11
India,Odisha,Cuttack,"CDA Area, Cuttack - OSPCB","06-04-2026 18:00:00","20.48891     ","85.84768     ",PM10,70,115,92
India,Odisha,Cuttack,"CDA Area, Cuttack - OSPCB","06-04-2026 18:00:00","20.48891     ","85.84768     ",SO2,5,14,7
India,Odisha,Cuttack,"CDA Area, Cuttack - OSPCB","06-04-2026 18:00:00","20.48891     ","85.84768     ",OZONE,12,41,33
India,Odisha,Keonjhar,"Jagamohanpur, Keonjhar - OSPCB","06-04-2026 18:00:00",21.643900,85.599355,NH3,5,5,5
India,Odisha,Baripada,"Meher Colony, Baripada - OSPCB","06-04-2026 18:00:00",21.941841,86.728318,PM10,41,81,59
India,Odisha,Baripada,"Meher Colony, Baripada - OSPCB","06-04-2026 18:00:00",21.941841,86.728318,NO2,1,13,4
India,Odisha,Baripada,"Meher Colony, Baripada - OSPCB","06-04-2026 18:00:00",21.941841,86.728318,SO2,4,16,9
India,Odisha,Bhubaneswar,"Patia, Bhubaneswar - OSPCB","06-04-2026 18:00:00",20.34652,85.81630,NH3,5,7,6
India,Odisha,Bileipada,"Tata Township, Bileipada - OSPCB","06-04-2026 18:00:00",22.06156703,85.47409613,NH3,6,6,6
India,Maharashtra,Ulhasnagar,"Sidhi Vinayak Nagar, Ulhasnagar - MPCB","06-04-2026 18:00:00",19.235581,73.159121,PM10,51,116,90
India,Odisha,Bileipada,"Tata Township, Bileipada - OSPCB","06-04-2026 18:00:00",22.06156703,85.47409613,SO2,11,11,11
India,Odisha,Nayagarh,"Dabuna, Nayagarh - OSPCB","06-04-2026 18:00:00",21.847279,85.416905,PM10,22,78,55
India,Odisha,Rairangpur,"Divisional Forest Office, Rairangpur - OSPCB","06-04-2026 18:00:00",22.265816,86.174829,OZONE,3,32,28
India,Odisha,Rourkela,"Fertilizer Township, Rourkela - OSPCB","06-04-2026 18:00:00",22.18972222,84.86277778,PM10,41,100,77
India,Odisha,Rourkela,"Fertilizer Township, Rourkela - OSPCB","06-04-2026 18:00:00",22.18972222,84.86277778,SO2,10,19,13
India,Odisha,Rourkela,"Raghunathpali, Rourkela - OSPCB","06-04-2026 18:00:00",22.220833,84.809444,PM10,28,122,59
India,Odisha,Rourkela,"Raghunathpali, Rourkela - OSPCB","06-04-2026 18:00:00",22.220833,84.809444,NO2,15,15,15
India,Odisha,Rourkela,"Raghunathpali, Rourkela - OSPCB","06-04-2026 18:00:00",22.220833,84.809444,SO2,5,8,6
India,Odisha,Suakati,"OMC Colony, Suakati - OSPCB","06-04-2026 18:00:00",21.606865,85.510538,PM2.5,55,96,71
India,Odisha,Suakati,"OMC Colony, Suakati - OSPCB","06-04-2026 18:00:00",21.606865,85.510538,NH3,7,7,7
India,Rajasthan,Barmer,"Railway Colony, Barmer - RSPCB","06-04-2026 18:00:00",25.747299,71.393989,SO2,4,8,5
India,Rajasthan,Barmer,"Railway Colony, Barmer - RSPCB","06-04-2026 18:00:00",25.747299,71.393989,OZONE,44,88,72
India,Rajasthan,Bhilwara,"Pratap Nagar, Bhilwara - RSPCB","06-04-2026 18:00:00",25.339605,74.618883,NH3,7,9,8
India,Rajasthan,Bhiwadi,"RIICO Ind. Area III, Bhiwadi - RSPCB","06-04-2026 18:00:00",28.194909,76.862296,OZONE,5,233,68
India,Rajasthan,Bhiwadi,"Vasundhara Nagar_UIT, Bhiwadi - RSPCB","06-04-2026 18:00:00",28.207266,76.829265,PM2.5,17,202,66
India,Rajasthan,Bhiwadi,"Vasundhara Nagar_UIT, Bhiwadi - RSPCB","06-04-2026 18:00:00",28.207266,76.829265,CO,39,69,42
India,Rajasthan,Bhiwadi,"Vasundhara Nagar_UIT, Bhiwadi - RSPCB","06-04-2026 18:00:00",28.207266,76.829265,OZONE,3,119,106
India,Rajasthan,Bikaner,"MM Ground, Bikaner - RSPCB","06-04-2026 18:00:00",28.018792,73.292658,PM10,31,266,117
India,Punjab,Jalandhar,"Civil Line, Jalandhar - PPCB","06-04-2026 18:00:00",31.321907,75.578914,NO2,27,52,33
India,Punjab,Jalandhar,"Civil Line, Jalandhar - PPCB","06-04-2026 18:00:00",31.321907,75.578914,OZONE,39,47,41
India,Punjab,Ludhiana,"Punjab Agricultural University, Ludhiana - PPCB","06-04-2026 18:00:00",30.9028,75.8086,PM10,67,92,75
India,Punjab,Ludhiana,"Punjab Agricultural University, Ludhiana - PPCB","06-04-2026 18:00:00",30.9028,75.8086,OZONE,38,69,60
India,Punjab,"Mandi Gobindgarh","RIMT University, Mandi Gobindgarh - PPCB","06-04-2026 18:00:00",30.649961,76.331442,NO2,23,24,24
India,Punjab,"Mandi Gobindgarh","RIMT University, Mandi Gobindgarh - PPCB","06-04-2026 18:00:00",30.649961,76.331442,OZONE,33,48,35
India,Punjab,Patiala,"Model Town, Patiala - PPCB","06-04-2026 18:00:00",30.349388,76.366642,SO2,2,16,9
India,Rajasthan,Bikaner,"MM Ground, Bikaner - RSPCB","06-04-2026 18:00:00",28.018792,73.292658,OZONE,47,125,112
India,Rajasthan,Bundi,"New Colony, Bundi - RSPCB","06-04-2026 18:00:00",25.435774,75.644272,NO2,10,30,16
India,Rajasthan,Chittorgarh,"Shastri Nagar, Chittorgarh - RSPCB","06-04-2026 18:00:00",24.892047,74.623527,NO2,6,84,38
India,Rajasthan,Churu,"Subash Chowk, Churu - RSPCB","06-04-2026 18:00:00",28.296139,74.961696,SO2,2,7,4
India,Rajasthan,Dholpur,"Raja Ganj, Dholpur - RSPCB","06-04-2026 18:00:00",26.699557,77.898881,PM2.5,28,87,57
India,Rajasthan,Dholpur,"Raja Ganj, Dholpur - RSPCB","06-04-2026 18:00:00",26.699557,77.898881,NO2,13,62,24
India,Odisha,Talcher,"Talcher Coalfields,Talcher - OSPCB","06-04-2026 18:00:00",20.9360711,85.1707021,PM10,25,212,71
India,Odisha,Talcher,"Talcher Coalfields,Talcher - OSPCB","06-04-2026 18:00:00",20.9360711,85.1707021,NH3,4,7,6
India,Odisha,Talcher,"Talcher Coalfields,Talcher - OSPCB","06-04-2026 18:00:00",20.9360711,85.1707021,SO2,14,52,28
India,Puducherry,Puducherry,"Jawahar Nagar, Puducherry - PPCC","06-04-2026 18:00:00",11.9309,79.8027,SO2,3,9,6
India,Puducherry,Puducherry,"Jawahar Nagar, Puducherry - PPCC","06-04-2026 18:00:00",11.9309,79.8027,CO,1,28,13
India,Punjab,Amritsar,"Golden Temple, Amritsar - PPCB","06-04-2026 18:00:00",31.620000,74.876512,NH3,NA,NA,NA
India,Punjab,Amritsar,"Golden Temple, Amritsar - PPCB","06-04-2026 18:00:00",31.620000,74.876512,OZONE,31,59,48
India,Rajasthan,Jaipur,"RIICO Sitapura, Jaipur - RSPCB","06-04-2026 18:00:00",26.786682,75.827928,CO,48,103,77
India,Rajasthan,Jaipur,"RIICO Sitapura, Jaipur - RSPCB","06-04-2026 18:00:00",26.786682,75.827928,OZONE,12,122,101
India,Rajasthan,Jaipur,"Sector-2 Murlipura, Jaipur - RSPCB","06-04-2026 18:00:00",26.960669,75.771817,PM2.5,38,243,89
India,Rajasthan,Jaipur,"Sector-2 Murlipura, Jaipur - RSPCB","06-04-2026 18:00:00",26.960669,75.771817,CO,8,48,14
India,Rajasthan,Jaipur,"Shastri Nagar, Jaipur - RSPCB","06-04-2026 18:00:00",26.9502929,75.730943,SO2,4,48,22
India,Rajasthan,Dungarpur,"Bhoiwada, Dungarpur - RSPCB","06-04-2026 18:00:00",23.837789,73.714926,SO2,4,8,6
India,Rajasthan,Hanumangarh,"Housing Board, Hanumangarh - RSPCB","06-04-2026 18:00:00",29.610750,74.283608,PM10,38,284,96
India,Rajasthan,Hanumangarh,"Housing Board, Hanumangarh - RSPCB","06-04-2026 18:00:00",29.610750,74.283608,OZONE,13,79,72
India,Rajasthan,Jaipur,"Police Commissionerate, Jaipur - RSPCB","06-04-2026 18:00:00",26.9164092,75.7994901,SO2,21,32,26
India,Rajasthan,Jaisalmer,"Sadar Bazar, Jaisalmer - RSPCB","06-04-2026 18:00:00",26.912329,70.909168,PM10,18,137,54
India,Rajasthan,Jaisalmer,"Sadar Bazar, Jaisalmer - RSPCB","06-04-2026 18:00:00",26.912329,70.909168,NH3,11,16,13
India,Rajasthan,Jalore,"Mudtra Sili, Jalore - RSPCB","06-04-2026 18:00:00",25.344694,72.626208,PM10,18,125,62
India,Rajasthan,Jhalawar,"Rajlaxmi Nagar, Jhalawar - RSPCB","06-04-2026 18:00:00",24.588397,76.172782,PM2.5,10,72,29
India,Rajasthan,Ajmer,"Civil Lines,  Ajmer - RSPCB","06-04-2026 18:00:00",26.470859,74.646594,CO,14,108,41
India,Rajasthan,Ajmer,"Civil Lines,  Ajmer - RSPCB","06-04-2026 18:00:00",26.470859,74.646594,OZONE,9,65,39
India,Rajasthan,Banswara,"Rati Talai, Banswara - RSPCB","06-04-2026 18:00:00",23.555190,74.440010,NO2,8,83,27
India,Rajasthan,Baran,"Bamboliya, Baran - RSPCB","06-04-2026 18:00:00",25.106006,76.469948,CO,6,52,16
India,TamilNadu,Coimbatore,"PSG College of Arts and Science, Coimbatore - TNPCB","06-04-2026 18:00:00",11.0328,77.0349,PM10,30,49,39
India,TamilNadu,Coimbatore,"PSG College of Arts and Science, Coimbatore - TNPCB","06-04-2026 18:00:00",11.0328,77.0349,SO2,2,9,5
India,TamilNadu,Coimbatore,"SIDCO Kurichi, Coimbatore - TNPCB","06-04-2026 18:00:00",10.942451,76.978996,NH3,1,1,1
India,TamilNadu,Dindigul,"Mendonsa Colony, Dindigul - TNPCB","06-04-2026 18:00:00",10.358535,77.984321,NH3,NA,NA,NA
India,TamilNadu,Gummidipoondi,"Anthoni Pillai Nagar, Gummidipoondi - TNPCB","06-04-2026 18:00:00",13.4127,80.1081,NO2,14,29,19
India,TamilNadu,Perundurai,"SIPCOT Industrial Park, Perundurai - TNPCB","06-04-2026 18:00:00",11.258242,77.552761,NH3,3,4,3
India,TamilNadu,Thoothukudi,"Meelavittan, Thoothukudi - TNPCB","06-04-2026 18:00:00","8.816428 ",78.099039,PM10,31,91,61
India,TamilNadu,Thoothukudi,"Meelavittan, Thoothukudi - TNPCB","06-04-2026 18:00:00","8.816428 ",78.099039,NO2,11,21,15
India,Rajasthan,Sikar,"Radhakishan Pura, Sikar - RSPCB","06-04-2026 18:00:00",27.608912,75.153302,NH3,10,19,13
India,Rajasthan,Sikar,"Radhakishan Pura, Sikar - RSPCB","06-04-2026 18:00:00",27.608912,75.153302,SO2,4,14,7
India,Rajasthan,Sirohi,"Vedhaynath Colony, Sirohi - RSPCB","06-04-2026 18:00:00",24.885261,72.857549,NH3,2,3,2
India,Rajasthan,Sirohi,"Vedhaynath Colony, Sirohi - RSPCB","06-04-2026 18:00:00",24.885261,72.857549,SO2,3,7,5
India,Rajasthan,Sirohi,"Vedhaynath Colony, Sirohi - RSPCB","06-04-2026 18:00:00",24.885261,72.857549,CO,6,29,12
India,Rajasthan,"Sri Ganganagar","Old City, Sri Ganganagar - RSPCB","06-04-2026 18:00:00",29.931624,73.864511,PM10,47,193,103
India,Rajasthan,"Sri Ganganagar","Old City, Sri Ganganagar - RSPCB","06-04-2026 18:00:00",29.931624,73.864511,NH3,5,13,10
India,Rajasthan,"Sri Ganganagar","Old City, Sri Ganganagar - RSPCB","06-04-2026 18:00:00",29.931624,73.864511,CO,9,38,14
India,Rajasthan,Tonk,"Shastri Nagar, Tonk - RSPCB","06-04-2026 18:00:00",26.159933,75.780517,SO2,1,6,3
India,Sikkim,Gangtok,"Zero Point GICI, Gangtok - SSPCB","06-04-2026 18:00:00",27.338530,88.614099,PM10,50,106,72
India,Sikkim,Gangtok,"Zero Point GICI, Gangtok - SSPCB","06-04-2026 18:00:00",27.338530,88.614099,NO2,6,7,6
India,Sikkim,Gangtok,"Zero Point GICI, Gangtok - SSPCB","06-04-2026 18:00:00",27.338530,88.614099,SO2,1,1,1
India,TamilNadu,Chennai,"Kodungaiyur, Chennai - TNPCB","06-04-2026 18:00:00",13.1278,80.2642,PM10,14,144,45
India,TamilNadu,Chennai,"Manali Village, Chennai - TNPCB","06-04-2026 18:00:00",13.1662,80.2584,PM2.5,20,57,31
India,TamilNadu,Chennai,"Manali Village, Chennai - TNPCB","06-04-2026 18:00:00",13.1662,80.2584,SO2,15,20,18
India,TamilNadu,Chennai,"Manali, Chennai - CPCB","06-04-2026 18:00:00",13.164544,80.26285,PM10,12,115,57
India,TamilNadu,Chennai,"Manali, Chennai - CPCB","06-04-2026 18:00:00",13.164544,80.26285,NO2,10,12,11
India,TamilNadu,Chennai,"Manali, Chennai - CPCB","06-04-2026 18:00:00",13.164544,80.26285,SO2,13,23,16
India,Rajasthan,Jhalawar,"Rajlaxmi Nagar, Jhalawar - RSPCB","06-04-2026 18:00:00",24.588397,76.172782,NH3,1,10,6
India,Rajasthan,Jhunjhunu,"Indra Nagar, Jhunjhunu - RSPCB","06-04-2026 18:00:00",28.108988,75.386577,NH3,7,10,8
India,Rajasthan,Jodhpur,"Collectorate, Jodhpur - RSPCB","06-04-2026 18:00:00",26.268249,73.0193853,PM2.5,46,318,97
India,Rajasthan,Jodhpur,"Collectorate, Jodhpur - RSPCB","06-04-2026 18:00:00",26.268249,73.0193853,NO2,15,45,25
India,Rajasthan,Jodhpur,"Digari Kalan, Jodhpur - RSPCB","06-04-2026 18:00:00",26.295810,73.082283,PM10,47,248,113
India,Rajasthan,Jodhpur,"Digari Kalan, Jodhpur - RSPCB","06-04-2026 18:00:00",26.295810,73.082283,CO,9,48,13
India,Rajasthan,Jodhpur,"Jhalamand, Jodhpur - RSPCB","06-04-2026 18:00:00",26.215415,73.070156,NO2,4,68,23
India,Rajasthan,Jodhpur,"Mandor, Jodhpur - RSPCB","06-04-2026 18:00:00",26.358805,73.047444,NO2,4,95,34
India,Rajasthan,Jodhpur,"Mandor, Jodhpur - RSPCB","06-04-2026 18:00:00",26.358805,73.047444,NH3,3,6,5
India,Rajasthan,Jodhpur,"Samrat Ashok Udhyan, Jodhpur - RSPCB","06-04-2026 18:00:00",26.253384,72.976571,PM2.5,8,110,45
India,Rajasthan,Jodhpur,"Samrat Ashok Udhyan, Jodhpur - RSPCB","06-04-2026 18:00:00",26.253384,72.976571,NH3,4,6,5
India,Rajasthan,Jodhpur,"Samrat Ashok Udhyan, Jodhpur - RSPCB","06-04-2026 18:00:00",26.253384,72.976571,OZONE,2,155,143
India,Rajasthan,Kota,"Dhanmandi, Kota - RSPCB","06-04-2026 18:00:00",25.164090,75.858137,PM2.5,5,63,35
India,Rajasthan,Kota,"Nayapura, Kota - RSPCB","06-04-2026 18:00:00",25.196024,75.855668,NH3,3,5,4
India,Rajasthan,Kota,"Nayapura, Kota - RSPCB","06-04-2026 18:00:00",25.196024,75.855668,SO2,9,21,15
India,Telangana,Hyderabad,"Central University, Hyderabad - TSPCB","06-04-2026 18:00:00",17.460103,78.334361,PM2.5,3,29,16
India,Telangana,Hyderabad,"ECIL Kapra, Hyderabad - TSPCB","06-04-2026 18:00:00",17.470431,78.566959,PM2.5,43,66,54
India,Telangana,Hyderabad,"ECIL Kapra, Hyderabad - TSPCB","06-04-2026 18:00:00",17.470431,78.566959,PM10,65,75,70
India,Telangana,Hyderabad,"ECIL Kapra, Hyderabad - TSPCB","06-04-2026 18:00:00",17.470431,78.566959,CO,16,30,21
India,Telangana,Hyderabad,"IITH Kandi, Hyderabad - TSPCB","06-04-2026 18:00:00",17.585705,78.126199,CO,18,54,21
India,Telangana,Hyderabad,"Kokapet, Hyderabad - TSPCB","06-04-2026 18:00:00",17.393559,78.339194,PM2.5,NA,NA,NA
India,Telangana,Hyderabad,"Kokapet, Hyderabad - TSPCB","06-04-2026 18:00:00",17.393559,78.339194,SO2,NA,NA,NA
India,Rajasthan,Pali,"Indira Colony Vistar, Pali - RSPCB","06-04-2026 18:00:00",25.771061," 73.340227",PM10,49,193,90
India,Rajasthan,Pali,"Indira Colony Vistar, Pali - RSPCB","06-04-2026 18:00:00",25.771061," 73.340227",SO2,5,11,8
India,Rajasthan,Pratapgarh,"Pragati Nagar, Pratapgarh - RSPCB","06-04-2026 18:00:00",24.041198,74.780702,OZONE,15,111,99
India,Rajasthan,Rajsamand,"Dhoinda, Rajsamand - RSPCB","06-04-2026 18:00:00",25.036360,73.883502,PM2.5,3,95,21
India,Rajasthan,Kota,"Nayapura, Kota - RSPCB","06-04-2026 18:00:00",25.196024,75.855668,OZONE,8,140,120
India,Rajasthan,Kota,"Shrinath Puram, Kota - RSPCB","06-04-2026 18:00:00",25.14389,75.821256,PM2.5,41,64,51
India,Rajasthan,Kota,"Shrinath Puram, Kota - RSPCB","06-04-2026 18:00:00",25.14389,75.821256,SO2,6,17,10
India,Rajasthan,Kota,"Shrinath Puram, Kota - RSPCB","06-04-2026 18:00:00",25.14389,75.821256,CO,13,66,31
India,TamilNadu,Chennai,"Velachery Res. Area, Chennai - CPCB","06-04-2026 18:00:00",13.0052189,80.2398125,PM2.5,29,29,29
India,Uttar_Pradesh,Kanpur,"FTI Kidwai Nagar, Kanpur - UPPCB","06-04-2026 18:00:00",26.428282,80.327067,NO2,27,27,27
India,Uttar_Pradesh,Kanpur,"NSI Kalyanpur, Kanpur - UPPCB","06-04-2026 18:00:00",26.509954,80.249612,CO,15,20,18
India,Uttar_Pradesh,Kanpur,"NSI Kalyanpur, Kanpur - UPPCB","06-04-2026 18:00:00",26.509954,80.249612,OZONE,17,19,18
India,Uttar_Pradesh,Kanpur,"Nehru Nagar, Kanpur - UPPCB","06-04-2026 18:00:00",26.4703136,80.3229863,NO2,NA,NA,NA
India,Uttar_Pradesh,Kanpur,"Nehru Nagar, Kanpur - UPPCB","06-04-2026 18:00:00",26.4703136,80.3229863,CO,60,66,63
India,Uttar_Pradesh,Khurja,"Kalindi Kunj, Khurja - UPPCB","06-04-2026 18:00:00",28.2348927,77.8683002,PM10,20,128,68
India,Uttar_Pradesh,Khurja,"Kalindi Kunj, Khurja - UPPCB","06-04-2026 18:00:00",28.2348927,77.8683002,NO2,12,13,13
India,Uttar_Pradesh,Khurja,"Kalindi Kunj, Khurja - UPPCB","06-04-2026 18:00:00",28.2348927,77.8683002,NH3,1,1,1
India,Uttar_Pradesh,Lucknow,"B R Ambedkar University, Lucknow - UPPCB","06-04-2026 18:00:00",26.766433,80.927299,PM10,9,72,35
India,Uttar_Pradesh,Lucknow,"B R Ambedkar University, Lucknow - UPPCB","06-04-2026 18:00:00",26.766433,80.927299,NO2,12,12,12
India,Uttar_Pradesh,Lucknow,"Gomti Nagar, Lucknow - UPPCB","06-04-2026 18:00:00",26.868120,81.005119,SO2,9,13,11
India,Uttar_Pradesh,Meerut,"Pallavpuram Phase 2, Meerut - UPPCB","06-04-2026 18:00:00",29.063510,77.709723,NH3,4,9,7
India,Uttar_Pradesh,Moradabad,"Buddhi Vihar, Moradabad - UPPCB","06-04-2026 18:00:00",28.83526,78.74460,NO2,28,29,29
India,Uttar_Pradesh,Moradabad,"Eco Herbal Park, Moradabad - UPPCB","06-04-2026 18:00:00",28.840739,78.697531,NO2,14,61,35
India,Uttar_Pradesh,Moradabad,"Eco Herbal Park, Moradabad - UPPCB","06-04-2026 18:00:00",28.840739,78.697531,NH3,4,7,5
India,Uttar_Pradesh,Moradabad,"Eco Herbal Park, Moradabad - UPPCB","06-04-2026 18:00:00",28.840739,78.697531,CO,24,100,57
India,Uttar_Pradesh,Moradabad,"Employment Office, Moradabad - UPPCB","06-04-2026 18:00:00",28.88528,78.73880,NH3,4,4,4
India,Uttar_Pradesh,Moradabad,"Jigar Colony, Moradabad - UPPCB","06-04-2026 18:00:00",28.856664,78.772638,PM10,47,113,76
India,Uttar_Pradesh,Moradabad,"Kashiram Nagar, Moradabad - UPPCB","06-04-2026 18:00:00",28.849399,78.742362,PM2.5,11,79,41
India,Uttar_Pradesh,Lucknow,"Gomti Nagar, Lucknow - UPPCB","06-04-2026 18:00:00",26.868120,81.005119,CO,34,42,41
India,Uttar_Pradesh,Lucknow,"Kendriya Vidyalaya, Lucknow - CPCB","06-04-2026 18:00:00",26.906111,80.948222,SO2,5,11,8
India,Uttar_Pradesh,Lucknow,"Kukrail Picnic Spot-1, Lucknow - UPPCB","06-04-2026 18:00:00",26.90723,80.98579,NO2,31,32,32
India,Uttar_Pradesh,Lucknow,"Kukrail Picnic Spot-1, Lucknow - UPPCB","06-04-2026 18:00:00",26.90723,80.98579,NH3,6,6,6
India,Uttar_Pradesh,Lucknow,"Kukrail Picnic Spot-1, Lucknow - UPPCB","06-04-2026 18:00:00",26.90723,80.98579,SO2,21,24,23
India,Uttar_Pradesh,Lucknow,"Kukrail Picnic Spot-1, Lucknow - UPPCB","06-04-2026 18:00:00",26.90723,80.98579,CO,7,12,9
India,Uttar_Pradesh,Lucknow,"Lalbagh, Lucknow - CPCB","06-04-2026 18:00:00",26.8458805,80.9365541,PM10,72,123,93
India,Uttar_Pradesh,Lucknow,"Lalbagh, Lucknow - CPCB","06-04-2026 18:00:00",26.8458805,80.9365541,NO2,40,52,46
India,Telangana,Hyderabad,"Nacharam_TSIIC IALA, Hyderabad - TSPCB","06-04-2026 18:00:00",17.429398,78.569354,NH3,3,3,3
India,Telangana,Hyderabad,"Nacharam_TSIIC IALA, Hyderabad - TSPCB","06-04-2026 18:00:00",17.429398,78.569354,CO,NA,NA,NA
India,Telangana,Hyderabad,"Nacharam_TSIIC IALA, Hyderabad - TSPCB","06-04-2026 18:00:00",17.429398,78.569354,OZONE,NA,NA,NA
India,Telangana,Hyderabad,"New Malakpet, Hyderabad - TSPCB","06-04-2026 18:00:00",17.37206,78.50864,PM10,NA,NA,NA
India,Telangana,Hyderabad,"New Malakpet, Hyderabad - TSPCB","06-04-2026 18:00:00",17.37206,78.50864,SO2,NA,NA,NA
India,Telangana,Hyderabad,"Ramachandrapuram, Hyderabad - TSPCB","06-04-2026 18:00:00",17.528544,78.286195,NH3,4,6,5
India,Telangana,Hyderabad,"Ramachandrapuram, Hyderabad - TSPCB","06-04-2026 18:00:00",17.528544,78.286195,OZONE,24,32,29
India,Telangana,Hyderabad,"Sanathnagar, Hyderabad - TSPCB","06-04-2026 18:00:00",17.4559458,78.4332152,OZONE,13,17,16
India,Tripura,Agartala,"Bardowali, Agartala - Tripura SPCB","06-04-2026 18:00:00",23.8175497,91.2726974,PM2.5,62,197,88
India,Tripura,Agartala,"Bardowali, Agartala - Tripura SPCB","06-04-2026 18:00:00",23.8175497,91.2726974,PM10,72,157,105
India,Tripura,Agartala,"Bardowali, Agartala - Tripura SPCB","06-04-2026 18:00:00",23.8175497,91.2726974,OZONE,1,19,16
India,Uttar_Pradesh,Agra,"Manoharpur, Agra - UPPCB","06-04-2026 18:00:00",27.23711,78.01936,NH3,5,6,6
India,Uttar_Pradesh,Agra,"Manoharpur, Agra - UPPCB","06-04-2026 18:00:00",27.23711,78.01936,OZONE,6,91,6
India,Uttar_Pradesh,Agra,"Sector-3B Avas Vikas Colony, Agra - UPPCB","06-04-2026 18:00:00",27.19412,77.96237,NH3,8,9,8
India,Uttar_Pradesh,Agra,"Sector-3B Avas Vikas Colony, Agra - UPPCB","06-04-2026 18:00:00",27.19412,77.96237,SO2,13,14,13
India,Uttar_Pradesh,Firozabad,"Nagla Bhau, Firozabad - UPPCB","06-04-2026 18:00:00",27.168897,78.376960,OZONE,9,34,20
India,Uttar_Pradesh,Ghaziabad,"Indirapuram, Ghaziabad - UPPCB","06-04-2026 18:00:00",28.646233,77.358075,PM2.5,23,335,147
India,Uttar_Pradesh,Ghaziabad,"Indirapuram, Ghaziabad - UPPCB","06-04-2026 18:00:00",28.646233,77.358075,NH3,15,19,16
India,Uttar_Pradesh,Ghaziabad,"Loni, Ghaziabad - UPPCB","06-04-2026 18:00:00",28.757294,77.278792,OZONE,74,91,85
India,Uttar_Pradesh,Ghaziabad,"Sanjay Nagar, Ghaziabad - UPPCB","06-04-2026 18:00:00",28.685382,77.453839,PM10,85,423,177
India,Uttar_Pradesh,Ghaziabad,"Vasundhara, Ghaziabad - UPPCB","06-04-2026 18:00:00",28.6603346,77.3572563,PM10,75,316,159
India,Uttar_Pradesh,"Greater Noida","Knowledge Park - III, Greater Noida - UPPCB","06-04-2026 18:00:00",28.47272,77.482000,PM2.5,18,317,103
India,Uttar_Pradesh,"Greater Noida","Knowledge Park - III, Greater Noida - UPPCB","06-04-2026 18:00:00",28.47272,77.482000,NH3,5,13,8
India,Uttar_Pradesh,"Greater Noida","Knowledge Park - V, Greater Noida - UPPCB","06-04-2026 18:00:00",28.557054,77.453663,SO2,11,24,17
India,Uttar_Pradesh,Hapur,"Anand Vihar, Hapur - UPPCB","06-04-2026 18:00:00",28.725645,77.749675,NO2,14,26,18
India,Uttar_Pradesh,Jhansi,"Shivaji Nagar, Jhansi - UPPCB","06-04-2026 18:00:00",25.4547,78.6039,PM2.5,11,54,26
India,Uttar_Pradesh,Jhansi,"Shivaji Nagar, Jhansi - UPPCB","06-04-2026 18:00:00",25.4547,78.6039,SO2,10,17,12
India,Uttar_Pradesh,Baghpat,"Sardar Patel Inter College, Baghpat - UPPCB","06-04-2026 18:00:00",28.964949,77.278761,PM2.5,8,273,101
India,Uttar_Pradesh,Baghpat,"Sardar Patel Inter College, Baghpat - UPPCB","06-04-2026 18:00:00",28.964949,77.278761,PM10,36,416,134
India,Uttar_Pradesh,Baghpat,"Sardar Patel Inter College, Baghpat - UPPCB","06-04-2026 18:00:00",28.964949,77.278761,NO2,8,34,23
India,Uttar_Pradesh,Bareilly,"Civil Lines, Bareilly - UPPCB","06-04-2026 18:00:00",28.359581,79.414455,PM2.5,27,50,36
India,Uttar_Pradesh,Bareilly,"Civil Lines, Bareilly - UPPCB","06-04-2026 18:00:00",28.359581,79.414455,NO2,2,3,2
India,Uttar_Pradesh,Bareilly,"Rajendra Nagar, Bareilly - UPPCB","06-04-2026 18:00:00",28.38910936,79.42963708,OZONE,1,12,5
India,Uttar_Pradesh,Meerut,"Ganga Nagar, Meerut - UPPCB","06-04-2026 18:00:00",28.999264,77.7590354,PM2.5,14,245,86
India,Uttar_Pradesh,Meerut,"Ganga Nagar, Meerut - UPPCB","06-04-2026 18:00:00",28.999264,77.7590354,SO2,20,24,21
India,Uttar_Pradesh,Meerut,"Ganga Nagar, Meerut - UPPCB","06-04-2026 18:00:00",28.999264,77.7590354,CO,38,66,49
India,Uttar_Pradesh,Meerut,"Jai Bhim Nagar, Meerut - UPPCB","06-04-2026 18:00:00",28.9535882,77.7622941,NO2,16,69,42
India,Uttar_Pradesh,Meerut,"Jai Bhim Nagar, Meerut - UPPCB","06-04-2026 18:00:00",28.9535882,77.7622941,CO,14,72,19
India,Uttar_Pradesh,Moradabad,"Kashiram Nagar, Moradabad - UPPCB","06-04-2026 18:00:00",28.849399,78.742362,SO2,86,131,108
India,Uttar_Pradesh,Moradabad,"Transport Nagar, Moradabad - UPPCB","06-04-2026 18:00:00",28.802625,78.753728,NH3,5,5,5
India,Uttar_Pradesh,Muzaffarnagar,"New Mandi, Muzaffarnagar - UPPCB","06-04-2026 18:00:00",29.4723508,77.7194031,PM10,47,206,107
India,Uttar_Pradesh,Muzaffarnagar,"New Mandi, Muzaffarnagar - UPPCB","06-04-2026 18:00:00",29.4723508,77.7194031,NO2,20,65,36
India,Uttar_Pradesh,Noida,"Sector - 125, Noida - UPPCB","06-04-2026 18:00:00",28.5447608,77.3231257,SO2,8,17,12
India,Uttar_Pradesh,Noida,"Sector - 62, Noida - IMD","06-04-2026 18:00:00",28.6245479,77.3577104,NO2,2,37,8
India,Uttar_Pradesh,Noida,"Sector-1, Noida - UPPCB","06-04-2026 18:00:00",28.5898,77.3101,CO,31,76,41
India,Uttar_Pradesh,Noida,"Sector-116, Noida - UPPCB","06-04-2026 18:00:00",28.569230,77.393848,PM10,NA,NA,NA
India,Uttar_Pradesh,Prayagraj,"Jhunsi, Prayagraj - UPPCB","06-04-2026 18:00:00",25.425602,81.917152,NO2,6,6,6
India,Uttar_Pradesh,Prayagraj,"Jhunsi, Prayagraj - UPPCB","06-04-2026 18:00:00",25.425602,81.917152,CO,4,20,7
India,Uttar_Pradesh,Prayagraj,"Motilal Nehru NIT, Prayagraj - UPPCB","06-04-2026 18:00:00",25.494,81.863,PM2.5,NA,NA,NA
India,Uttar_Pradesh,Prayagraj,"Motilal Nehru NIT, Prayagraj - UPPCB","06-04-2026 18:00:00",25.494,81.863,NO2,12,12,12
India,Uttar_Pradesh,Prayagraj,"Motilal Nehru NIT, Prayagraj - UPPCB","06-04-2026 18:00:00",25.494,81.863,OZONE,12,55,41
India,Uttar_Pradesh,Prayagraj,"Nagar Nigam, Prayagraj - UPPCB","06-04-2026 18:00:00","25.44919916 ","81.82735986 ",CO,12,38,16
India,Uttar_Pradesh,Varanasi,"Ardhali Bazar, Varanasi - UPPCB","06-04-2026 18:00:00",25.3505986,82.9083074,PM10,74,186,122
India,Uttar_Pradesh,Varanasi,"Bhelupur, Varanasi - UPPCB","06-04-2026 18:00:00",25.301778,82.996789,PM2.5,6,60,25
India,Uttar_Pradesh,Varanasi,"IESD Banaras Hindu University, Varanasi - UPPCB","06-04-2026 18:00:00",25.262326,82.995408,NO2,2,2,2
India,Uttar_Pradesh,Varanasi,"IESD Banaras Hindu University, Varanasi - UPPCB","06-04-2026 18:00:00",25.262326,82.995408,NH3,1,3,1
India,Uttar_Pradesh,Vrindavan,"Omex Eternity, Vrindavan - UPPCB","06-04-2026 18:00:00",27.5714090,77.6557570,NO2,27,27,27
India,Uttarakhand,Dehradun,"Doon University, Dehradun - UKPCB","06-04-2026 18:00:00",30.269444,78.044167,CO,4,6,6
India,Uttarakhand,Kashipur,"Govt. Girls Inter College, Kashipur - UKPCB","06-04-2026 18:00:00",29.2124114,78.9611753,PM2.5,30,93,67
India,Uttarakhand,Kashipur,"Govt. Girls Inter College, Kashipur - UKPCB","06-04-2026 18:00:00",29.2124114,78.9611753,PM10,28,87,62
India,Uttarakhand,Kashipur,"Govt. Girls Inter College, Kashipur - UKPCB","06-04-2026 18:00:00",29.2124114,78.9611753,OZONE,13,21,18
India,Uttarakhand,Rishikesh,"Shivaji Nagar, Rishikesh - UKPCB","06-04-2026 18:00:00",30.075911,78.2859547,NH3,8,26,13
India,West_Bengal,Asansol,"Asansol Court Area, Asansol - WBPCB","06-04-2026 18:00:00",23.685297,86.945968,SO2,12,56,29
India,West_Bengal,Asansol,"Evelyn Lodge, Asansol - WBPCB","06-04-2026 18:00:00",23.6979360,86.9443950,PM10,26,57,44
India,West_Bengal,Asansol,"Trivenidevi Bhalotia College, Asansol - WBPCB","06-04-2026 18:00:00",23.616515,87.119133,NH3,4,4,4
India,West_Bengal,Barrackpore,"SVSPA Campus, Barrackpore - WBPCB","06-04-2026 18:00:00",22.7605581,88.3617589,PM10,30,64,52
India,West_Bengal,Barrackpore,"SVSPA Campus, Barrackpore - WBPCB","06-04-2026 18:00:00",22.7605581,88.3617589,NH3,4,6,5
India,West_Bengal,Barrackpore,"SVSPA Campus, Barrackpore - WBPCB","06-04-2026 18:00:00",22.7605581,88.3617589,SO2,14,18,15
India,West_Bengal,Durgapur,"Mahishkapur Road_B-Zone, Durgapur - WBPCB","06-04-2026 18:00:00",23.567923,87.306843,NO2,2,30,14
India,West_Bengal,Durgapur,"Mahishkapur Road_B-Zone, Durgapur - WBPCB","06-04-2026 18:00:00",23.567923,87.306843,OZONE,9,54,44
India,West_Bengal,Durgapur,"PCBL Residential Complex, Durgapur - WBPCB","06-04-2026 18:00:00",23.5087640,87.3544400,NH3,6,8,7
India,West_Bengal,Durgapur,"PCBL Residential Complex, Durgapur - WBPCB","06-04-2026 18:00:00",23.5087640,87.3544400,SO2,5,9,6
India,West_Bengal,Durgapur,"Womens College_City Center, Durgapur - WBPCB","06-04-2026 18:00:00",23.549395,87.300496,NO2,27,34,30
India,West_Bengal,Haldia,"Priyambada Housing Estate, Haldia - WBPCB","06-04-2026 18:00:00",22.06047,88.109737,PM10,34,98,60
India,West_Bengal,Haldia,"Priyambada Housing Estate, Haldia - WBPCB","06-04-2026 18:00:00",22.06047,88.109737,OZONE,8,17,15
India,West_Bengal,Howrah,"Belur Math, Howrah - WBPCB","06-04-2026 18:00:00",22.629801,88.352017,NO2,31,89,57
India,West_Bengal,Howrah,"Botanical Garden, Howrah - WBPCB","06-04-2026 18:00:00",22.554954,88.292568,NO2,1,14,5
India,West_Bengal,Howrah,"Dasnagar, Howrah - WBPCB","06-04-2026 18:00:00",22.6025571,88.3105664,PM10,29,70,54
India,West_Bengal,Howrah,"Padmapukur, Howrah - WBPCB","06-04-2026 18:00:00",22.5687319,88.2797276,PM10,48,72,59
India,West_Bengal,Kolkata,"Ballygunge, Kolkata - WBPCB","06-04-2026 18:00:00",22.5367507,88.3638022,PM10,57,92,71
India,West_Bengal,Kolkata,"Fort William, Kolkata - WBPCB","06-04-2026 18:00:00",22.556640,88.342674,PM2.5,11,50,39
India,West_Bengal,Kolkata,"Fort William, Kolkata - WBPCB","06-04-2026 18:00:00",22.556640,88.342674,PM10,12,53,42
India,West_Bengal,Kolkata,"Fort William, Kolkata - WBPCB","06-04-2026 18:00:00",22.556640,88.342674,SO2,5,23,11
India,West_Bengal,Kolkata,"Rabindra Bharati University, Kolkata - WBPCB","06-04-2026 18:00:00",22.627847,88.380669,NO2,30,94,52
India,West_Bengal,Kolkata,"Rabindra Sarobar, Kolkata - WBPCB","06-04-2026 18:00:00",22.51106,88.35142,PM2.5,22,50,36
India,West_Bengal,Kolkata,"Rabindra Sarobar, Kolkata - WBPCB","06-04-2026 18:00:00",22.51106,88.35142,SO2,7,57,17
India,West_Bengal,Kolkata,"Rabindra Sarobar, Kolkata - WBPCB","06-04-2026 18:00:00",22.51106,88.35142,CO,2,26,19
India,West_Bengal,Kolkata,"Victoria, Kolkata - WBPCB","06-04-2026 18:00:00",22.5448082,88.3403691,PM10,53,81,66
India,West_Bengal,Kolkata,"Victoria, Kolkata - WBPCB","06-04-2026 18:00:00",22.5448082,88.3403691,NO2,33,44,36
India,West_Bengal,Kolkata,"Victoria, Kolkata - WBPCB","06-04-2026 18:00:00",22.5448082,88.3403691,OZONE,9,87,76
India,Assam,Silchar,"Tarapur, Silchar - PCBA","06-04-2026 18:00:00",24.82827,92.79525,SO2,5,7,6
India,Assam,Silchar,"Tarapur, Silchar - PCBA","06-04-2026 18:00:00",24.82827,92.79525,OZONE,2,5,4
India,Bihar,Araria,"Kharahiya Basti, Araria - BSPCB","06-04-2026 18:00:00",26.146529,87.454184,PM2.5,52,263,162
India,Bihar,Araria,"Kharahiya Basti, Araria - BSPCB","06-04-2026 18:00:00",26.146529,87.454184,NO2,1,11,2
India,Bihar,Araria,"Kharahiya Basti, Araria - BSPCB","06-04-2026 18:00:00",26.146529,87.454184,OZONE,9,10,10
India,Bihar,Arrah,"New DM Office, Arrah - BSPCB","06-04-2026 18:00:00",25.5626095,84.663264,PM10,NA,NA,NA
India,Bihar,Arrah,"New DM Office, Arrah - BSPCB","06-04-2026 18:00:00",25.5626095,84.663264,NH3,NA,NA,NA
India,Bihar,Arrah,"New DM Office, Arrah - BSPCB","06-04-2026 18:00:00",25.5626095,84.663264,SO2,NA,NA,NA
India,Bihar,Aurangabad,"Gurdeo Nagar, Aurangabad - BSPCB","06-04-2026 18:00:00",24.75746,84.366208,PM2.5,8,32,16
India,Bihar,Aurangabad,"Gurdeo Nagar, Aurangabad - BSPCB","06-04-2026 18:00:00",24.75746,84.366208,PM10,20,114,51
India,Bihar,Aurangabad,"Gurdeo Nagar, Aurangabad - BSPCB","06-04-2026 18:00:00",24.75746,84.366208,SO2,2,14,7
India,Andhra_Pradesh,Vijayawada,"Rajiv Nagar, Vijayawada - APPCB","06-04-2026 18:00:00",16.554731,80.649110,PM10,41,70,51
India,Andhra_Pradesh,Visakhapatnam,"GVM Corporation, Visakhapatnam - APPCB","06-04-2026 18:00:00",17.72,83.3,NO2,12,81,31
India,Andhra_Pradesh,Visakhapatnam,"GVM Corporation, Visakhapatnam - APPCB","06-04-2026 18:00:00",17.72,83.3,CO,6,46,16
India,Arunachal_Pradesh,Naharlagun,"Naharlagun, Naharlagun - APSPCB","06-04-2026 18:00:00",27.103358,93.679645,PM2.5,NA,NA,NA
India,Arunachal_Pradesh,Naharlagun,"Naharlagun, Naharlagun - APSPCB","06-04-2026 18:00:00",27.103358,93.679645,PM10,NA,NA,NA
India,Assam,Byrnihat,"Central Academy for SFS, Byrnihat - PCBA","06-04-2026 18:00:00",26.071318,91.87488,CO,32,123,93
India,Assam,Guwahati,"IITG, Guwahati - PCBA","06-04-2026 18:00:00",26.2028636,91.70046436,PM2.5,44,94,67
India,Assam,Guwahati,"IITG, Guwahati - PCBA","06-04-2026 18:00:00",26.2028636,91.70046436,PM10,66,164,105
India,Assam,Guwahati,"Pan Bazaar, Guwahati - PCBA","06-04-2026 18:00:00",26.187500,91.744194,PM2.5,40,75,59
India,Assam,Guwahati,"Railway Colony, Guwahati - PCBA","06-04-2026 18:00:00",26.181742,91.78063,PM10,43,97,65
India,Assam,Nagaon,"Christianpatty, Nagaon - PCBA","06-04-2026 18:00:00",26.349082,92.68449,NO2,1,59,24
India,Assam,Nagaon,"Christianpatty, Nagaon - PCBA","06-04-2026 18:00:00",26.349082,92.68449,NH3,4,4,4
India,Assam,Nagaon,"Christianpatty, Nagaon - PCBA","06-04-2026 18:00:00",26.349082,92.68449,OZONE,11,12,12
India,Assam,Nalbari,"Bata Chowk, Nalbari - PCBA","06-04-2026 18:00:00",26.446912,91.439057,PM10,8,48,20
India,Assam,Silchar,"Tarapur, Silchar - PCBA","06-04-2026 18:00:00",24.82827,92.79525,NO2,22,29,25
India,Andhra_Pradesh,Rajamahendravaram,"Anand Kala Kshetram, Rajamahendravaram - APPCB","06-04-2026 18:00:00",16.9872867,81.7363176,CO,26,52,40
India,Andhra_Pradesh,Tirumala,"Toll Gate, Tirumala - APPCB","06-04-2026 18:00:00",13.67,79.35,NO2,38,111,66
India,Andhra_Pradesh,Vijayawada,"HB Colony, Vijayawada - APPCB","06-04-2026 18:00:00",16.536107,80.594233,PM10,48,116,75
India,Andhra_Pradesh,Vijayawada,"HB Colony, Vijayawada - APPCB","06-04-2026 18:00:00",16.536107,80.594233,NO2,9,27,15
India,Andhra_Pradesh,Vijayawada,"Kanuru, Vijayawada - APPCB","06-04-2026 18:00:00",16.486692,80.699436,CO,34,44,39
India,Andhra_Pradesh,Vijayawada,"Rajiv Gandhi Park, Vijayawada - APPCB","06-04-2026 18:00:00",16.509717,80.612222,PM10,42,82,59
India,Bihar,Begusarai,"Lohiyanagar, Begusarai - BSPCB","06-04-2026 18:00:00",25.42742023,86.13886079,CO,11,18,16
India,Bihar,Bettiah,"Kamalnath Nagar, Bettiah - BSPCB","06-04-2026 18:00:00",26.80365,84.51954,NO2,7,10,8
India,Bihar,Bhagalpur,"DM Office_Kachari Chowk, Bhagalpur - BSPCB","06-04-2026 18:00:00",25.251013,86.989001,SO2,4,104,47
India,Bihar,Bhagalpur,"DM Office_Kachari Chowk, Bhagalpur - BSPCB","06-04-2026 18:00:00",25.251013,86.989001,CO,1,42,10
India,Bihar,Bhagalpur,"Mayaganj, Bhagalpur - BSPCB","06-04-2026 18:00:00",25.265194,87.012947,CO,64,80,72
India,Bihar,"Bihar Sharif","D M Colony, Bihar Sharif - BSPCB","06-04-2026 18:00:00",25.204762,85.514960,CO,42,84,56
India,Bihar,Buxar,"Charitra Van, Buxar - BSPCB","06-04-2026 18:00:00",25.567520,83.966379,NH3,3,3,3
India,Bihar,Chhapra,"Darshan Nagar, Chhapra - BSPCB","06-04-2026 18:00:00",25.7808257,84.7446768,NO2,3,4,3
India,Bihar,Chhapra,"Darshan Nagar, Chhapra - BSPCB","06-04-2026 18:00:00",25.7808257,84.7446768,CO,8,12,10
India,Bihar,Gaya,"SFTI Kusdihra, Gaya - BSPCB","06-04-2026 18:00:00",24.762518,84.982348,PM2.5,20,41,29
India,Bihar,Gaya,"SFTI Kusdihra, Gaya - BSPCB","06-04-2026 18:00:00",24.762518,84.982348,NH3,2,4,3
India,Bihar,Gaya,"SFTI Kusdihra, Gaya - BSPCB","06-04-2026 18:00:00",24.762518,84.982348,SO2,7,8,8
India,Bihar,Hajipur,"Industrial Area, Hajipur - BSPCB","06-04-2026 18:00:00",25.697189,85.245900,NH3,10,13,12
India,Bihar,Katihar,"Mirchaibari, Katihar - BSPCB","06-04-2026 18:00:00",25.560083,87.553265,CO,68,86,79
India,Bihar,Katihar,"Mirchaibari, Katihar - BSPCB","06-04-2026 18:00:00",25.560083,87.553265,OZONE,10,54,19
India,Bihar,Manguraha,"Forest Rest House, Manguraha - BSPCB","06-04-2026 18:00:00",27.308328,84.531742,PM2.5,42,207,80
India,Bihar,Motihari,"Gandak Colony, Motihari - BSPCB","06-04-2026 18:00:00",26.63086,84.90051,SO2,3,3,3
India,Bihar,Munger,"Town Hall, Munger - BSPCB","06-04-2026 18:00:00",25.376776,86.471523,PM10,10,96,33
India,"Andaman and Nicobar","Sri Vijaya Puram","Police Line, Sri Vijaya Puram - ANPCC","06-04-2026 18:00:00",11.654054,92.734055,PM2.5,NA,NA,NA
India,"Andaman and Nicobar","Sri Vijaya Puram","Police Line, Sri Vijaya Puram - ANPCC","06-04-2026 18:00:00",11.654054,92.734055,NO2,NA,NA,NA
India,"Andaman and Nicobar","Sri Vijaya Puram","Police Line, Sri Vijaya Puram - ANPCC","06-04-2026 18:00:00",11.654054,92.734055,OZONE,12,40,26
India,Andhra_Pradesh,Amaravati,"Secretariat, Amaravati - APPCB","06-04-2026 18:00:00",16.5150833,80.5181667,CO,14,26,17
India,Andhra_Pradesh,Amaravati,"Secretariat, Amaravati - APPCB","06-04-2026 18:00:00",16.5150833,80.5181667,OZONE,20,76,46
India,Andhra_Pradesh,Anantapur,"Gulzarpet, Anantapur - APPCB","06-04-2026 18:00:00",14.675886,77.593027,NH3,4,7,5
India,Andhra_Pradesh,Chittoor,"Gangineni Cheruvu, Chittoor - APPCB","06-04-2026 18:00:00",13.204880,79.097889,NO2,24,32,26
India,Andhra_Pradesh,Kadapa,"Yerramukkapalli, Kadapa - APPCB","06-04-2026 18:00:00",14.465052,78.824187,PM2.5,58,99,74
India,Andhra_Pradesh,Nellore,"Ambedkar Nagar, Nellore - APPCB ","06-04-2026 18:00:00","14.438164 ","79.966814 ",PM2.5,38,78,56
India,Delhi,Delhi,"CRRI Mathura Road, Delhi - IMD","06-04-2026 18:00:00",28.5512005,77.2735737,OZONE,20,71,62
India,Delhi,Delhi,"Cantonment Area, Delhi - DPCC ","06-04-2026 18:00:00","28.594169 ","77.125100 ",PM2.5,9,57,26
India,Delhi,Delhi,"Cantonment Area, Delhi - DPCC ","06-04-2026 18:00:00","28.594169 ","77.125100 ",SO2,11,21,14
India,Delhi,Delhi,"Cantonment Area, Delhi - DPCC ","06-04-2026 18:00:00","28.594169 ","77.125100 ",CO,24,64,33
India,Delhi,Delhi,"Chandni Chowk, Delhi - IITM","06-04-2026 18:00:00",28.656756,77.227234,CO,103,121,104
India,Delhi,Delhi,"Commonwealth Sports Complex, Delhi - DPCC","06-04-2026 18:00:00","28.615828 ","77.271992 ",PM10,53,178,114
India,Delhi,Delhi,"Commonwealth Sports Complex, Delhi - DPCC","06-04-2026 18:00:00","28.615828 ","77.271992 ",NO2,10,47,19
India,Delhi,Delhi,"Commonwealth Sports Complex, Delhi - DPCC","06-04-2026 18:00:00","28.615828 ","77.271992 ",OZONE,1,99,89
India,Delhi,Delhi,"Dr. Karni Singh Shooting Range, Delhi - DPCC","06-04-2026 18:00:00",28.498571,77.264840,NH3,3,4,4
India,Delhi,Delhi,"Dwarka-Sector 8, Delhi - DPCC ","06-04-2026 18:00:00",28.5710274,77.0719006,PM10,83,459,200
India,Bihar,Munger,"Town Hall, Munger - BSPCB","06-04-2026 18:00:00",25.376776,86.471523,OZONE,9,10,10
India,Bihar,Muzaffarpur,"Buddha Colony, Muzaffarpur - BSPCB","06-04-2026 18:00:00",26.11442,85.39813,PM2.5,48,168,97
India,Bihar,Muzaffarpur,"Buddha Colony, Muzaffarpur - BSPCB","06-04-2026 18:00:00",26.11442,85.39813,PM10,92,192,131
India,Bihar,Muzaffarpur,"Muzaffarpur Collectorate, Muzaffarpur - BSPCB","06-04-2026 18:00:00",26.1209,85.3647,NO2,9,17,11
India,Bihar,Patna,"DRM Office Danapur, Patna - BSPCB","06-04-2026 18:00:00",25.586562,85.043586,CO,27,68,39
India,Bihar,Patna,"DRM Office Danapur, Patna - BSPCB","06-04-2026 18:00:00",25.586562,85.043586,OZONE,2,34,7
India,Bihar,Patna,"Govt. High School Shikarpur, Patna - BSPCB","06-04-2026 18:00:00",25.592539,85.227158,NO2,10,18,13
India,Chhattisgarh,Raipur,"AIIMS, Raipur - CECB","06-04-2026 18:00:00",21.258815,81.578979,SO2,NA,NA,NA
India,Chhattisgarh,Raipur,"Krishak Nagar, Raipur - CECB","06-04-2026 18:00:00",21.237755,81.705301,PM2.5,20,41,32
India,Chhattisgarh,Raipur,"Krishak Nagar, Raipur - CECB","06-04-2026 18:00:00",21.237755,81.705301,NO2,8,12,10
India,Chhattisgarh,Raipur,"Siltara Phase-II, Raipur - CECB","06-04-2026 18:00:00",21.371751,81.664929,NH3,3,3,3
India,Chhattisgarh,Raipur,"Siltara Phase-II, Raipur - CECB","06-04-2026 18:00:00",21.371751,81.664929,CO,17,18,17
India,Chhattisgarh,Tumidih,"OP Jindal Industrial Park, Tumidih - CECB","06-04-2026 18:00:00",22.06631475,83.33820077,NO2,30,92,54
India,Chhattisgarh,Tumidih,"OP Jindal Industrial Park, Tumidih - CECB","06-04-2026 18:00:00",22.06631475,83.33820077,NH3,1,3,2
India,Chhattisgarh,Tumidih,"OP Jindal Industrial Park, Tumidih - CECB","06-04-2026 18:00:00",22.06631475,83.33820077,CO,15,74,27
India,Bihar,Rajgir,"Dangi Tola, Rajgir - BSPCB","06-04-2026 18:00:00",25.03280,85.41948,OZONE,22,29,26
India,Bihar,Saharsa,"Police Line, Saharsa - BSPCB","06-04-2026 18:00:00",25.892357,86.590325,CO,36,44,39
India,Bihar,Samastipur,"DM Office_Kasipur, Samastipur - BSPCB","06-04-2026 18:00:00",25.859655,85.77944,OZONE,7,8,8
India,Bihar,Siwan,"Chitragupta Nagar, Siwan - BSPCB","06-04-2026 18:00:00",26.2271665,84.3570427,PM2.5,NA,NA,NA
India,Bihar,Siwan,"Chitragupta Nagar, Siwan - BSPCB","06-04-2026 18:00:00",26.2271665,84.3570427,NO2,2,2,2
India,Chandigarh,Chandigarh,"Sector 22, Chandigarh - CPCC","06-04-2026 18:00:00",30.735567,76.775714,PM2.5,8,37,19
India,Chhattisgarh,Bhilai,"32Bungalows, Bhilai - CECB","06-04-2026 18:00:00",21.194815,81.314770,CO,14,42,18
India,Chhattisgarh,Bhilai,"Civic Center, Bhilai - Bhilai Steel Plant","06-04-2026 18:00:00",21.185571,81.343175,PM10,31,70,45
India,Chhattisgarh,Bhilai,"Civic Center, Bhilai - Bhilai Steel Plant","06-04-2026 18:00:00",21.185571,81.343175,SO2,7,9,8
India,Chhattisgarh,Bilaspur,"Mangala, Bilaspur - NTPC","06-04-2026 18:00:00",22.08815,82.13737,SO2,11,25,19
India,Chhattisgarh,Chhal,"Nawapara SECL Colony, Chhal - CECB","06-04-2026 18:00:00",22.118125,83.140608,PM10,18,115,62
India,Chhattisgarh,Chhal,"Nawapara SECL Colony, Chhal - CECB","06-04-2026 18:00:00",22.118125,83.140608,SO2,1,19,9
India,Delhi,Delhi,"Alipur, Delhi - DPCC","06-04-2026 18:00:00",28.815329,77.153010,NO2,9,63,30
India,Delhi,Delhi,"Alipur, Delhi - DPCC","06-04-2026 18:00:00",28.815329,77.153010,NH3,12,15,12
India,Delhi,Delhi,"Alipur, Delhi - DPCC","06-04-2026 18:00:00",28.815329,77.153010,SO2,6,23,12
India,Delhi,Delhi,"Alipur, Delhi - DPCC","06-04-2026 18:00:00",28.815329,77.153010,CO,6,42,10
India,Delhi,Delhi,"Anand Vihar, Delhi - DPCC","06-04-2026 18:00:00",28.647622,77.3158090,SO2,18,32,25
India,Delhi,Delhi,"Ashok Vihar, Delhi - DPCC","06-04-2026 18:00:00",28.695381,77.181665,NO2,13,101,45
India,Delhi,Delhi,"Ashok Vihar, Delhi - DPCC","06-04-2026 18:00:00",28.695381,77.181665,NH3,6,7,7
India,Delhi,Delhi,"Bawana, Delhi - DPCC","06-04-2026 18:00:00",28.776200,77.051074,CO,20,70,23
India,Chhattisgarh,Korba,"Rampur, Korba - CECB","06-04-2026 18:00:00",22.368195,82.746431,PM10,NA,NA,NA
India,Chhattisgarh,Korba,"Urja Nagar, Korba - CECB","06-04-2026 18:00:00",22.348441,82.549611,CO,20,34,25
India,Chhattisgarh,Milupara,"Govt. Higher Secondary School, Milupara - CECB","06-04-2026 18:00:00",22.1910172,83.5197009,PM10,NA,NA,NA
India,Chhattisgarh,Milupara,"Govt. Higher Secondary School, Milupara - CECB","06-04-2026 18:00:00",22.1910172,83.5197009,NO2,NA,NA,NA
India,Chhattisgarh,Raipur,"AIIMS, Raipur - CECB","06-04-2026 18:00:00",21.258815,81.578979,PM2.5,NA,NA,NA
India,Bihar,Patna,"Muradpur, Patna - BSPCB","06-04-2026 18:00:00",25.619651,85.147382,SO2,8,12,10
India,Bihar,Patna,"Samanpura, Patna - BSPCB","06-04-2026 18:00:00",25.596727,85.085624,PM2.5,83,186,125
India,Bihar,Patna,"Samanpura, Patna - BSPCB","06-04-2026 18:00:00",25.596727,85.085624,NH3,2,3,3
India,Bihar,Patna,"Samanpura, Patna - BSPCB","06-04-2026 18:00:00",25.596727,85.085624,OZONE,25,36,30
India,Bihar,Purnia,"Mariam Nagar, Purnia - BSPCB","06-04-2026 18:00:00",25.366336,87.117468,PM2.5,NA,NA,NA
India,Delhi,Delhi,"IGI Airport (T3), Delhi - IMD","06-04-2026 18:00:00",28.5627763,77.1180053,OZONE,19,80,76
India,Gujarat,Bhavnagar,"Vidhyanagar, Bhavnagar - Nexteng Enviro","06-04-2026 18:00:00",21.755417,72.139056,NO2,58,102,81
India,Gujarat,Bhavnagar,"Vidhyanagar, Bhavnagar - Nexteng Enviro","06-04-2026 18:00:00",21.755417,72.139056,OZONE,8,30,26
India,Gujarat,Gandhinagar,"GIFT City, Gandhinagar - IITM","06-04-2026 18:00:00",23.163798,72.677768,PM2.5,24,77,42
India,Gujarat,Gandhinagar,"GIFT City, Gandhinagar - IITM","06-04-2026 18:00:00",23.163798,72.677768,NH3,4,11,6
India,Gujarat,Gandhinagar,"IIPHG Lekawada, Gandhinagar - IITM","06-04-2026 18:00:00",23.243639,72.68994,PM10,39,123,79
India,Gujarat,Gandhinagar,"IIPHG Lekawada, Gandhinagar - IITM","06-04-2026 18:00:00",23.243639,72.68994,CO,16,58,22
India,Gujarat,Gandhinagar,"Sector-10, Gandhinagar - GPCB","06-04-2026 18:00:00",23.221714,72.654328,CO,12,33,22
India,Gujarat,Gandhinagar,"Sector-10, Gandhinagar - GPCB","06-04-2026 18:00:00",23.221714,72.654328,OZONE,5,45,32
India,Gujarat,Mehsana,"Sadanand Nagar, Mehsana - Nexteng Enviro","06-04-2026 18:00:00",23.593150,72.372792,PM2.5,3,79,38
India,Gujarat,Mehsana,"Sadanand Nagar, Mehsana - Nexteng Enviro","06-04-2026 18:00:00",23.593150,72.372792,OZONE,12,16,16
India,Delhi,Delhi,"Najafgarh, Delhi - DPCC","06-04-2026 18:00:00",28.570173,76.933762,NO2,17,57,35
India,Delhi,Delhi,"Najafgarh, Delhi - DPCC","06-04-2026 18:00:00",28.570173,76.933762,SO2,20,95,33
India,Delhi,Delhi,"Narela, Delhi - DPCC","06-04-2026 18:00:00",28.822836,77.101981,NO2,6,61,20
India,Delhi,Delhi,"Narela, Delhi - DPCC","06-04-2026 18:00:00",28.822836,77.101981,NH3,5,7,6
India,Delhi,Delhi,"Nehru Nagar, Delhi - DPCC","06-04-2026 18:00:00",28.567890,77.250515,NO2,27,80,47
India,Delhi,Delhi,"North Campus, DU, Delhi - IMD","06-04-2026 18:00:00",28.6573814,77.1585447,NO2,NA,NA,NA
India,Delhi,Delhi,"Okhla Phase-2, Delhi - DPCC","06-04-2026 18:00:00",28.530785,77.271255,PM2.5,22,170,82
India,Delhi,Delhi,"Okhla Phase-2, Delhi - DPCC","06-04-2026 18:00:00",28.530785,77.271255,NH3,8,11,9
India,Delhi,Delhi,"Okhla Phase-2, Delhi - DPCC","06-04-2026 18:00:00",28.530785,77.271255,SO2,15,35,19
India,Delhi,Delhi,"Major Dhyan Chand National Stadium, Delhi - DPCC","06-04-2026 18:00:00",28.611281,77.237738,PM10,35,170,102
India,Delhi,Delhi,"Major Dhyan Chand National Stadium, Delhi - DPCC","06-04-2026 18:00:00",28.611281,77.237738,CO,43,104,53
India,Delhi,Delhi,"Major Dhyan Chand National Stadium, Delhi - DPCC","06-04-2026 18:00:00",28.611281,77.237738,OZONE,1,157,135
India,Delhi,Delhi,"Mandir Marg, Delhi - DPCC","06-04-2026 18:00:00",28.636429,77.201067,NO2,29,89,52
India,Delhi,Delhi,"Mandir Marg, Delhi - DPCC","06-04-2026 18:00:00",28.636429,77.201067,NH3,7,11,8
India,Delhi,Delhi,"Mundka, Delhi - DPCC","06-04-2026 18:00:00",28.684678,77.076574,PM2.5,20,429,172
India,Delhi,Delhi,"Mundka, Delhi - DPCC","06-04-2026 18:00:00",28.684678,77.076574,OZONE,3,74,67
India,Delhi,Delhi,"Najafgarh, Delhi - DPCC","06-04-2026 18:00:00",28.570173,76.933762,PM2.5,13,308,100
India,Delhi,Delhi,"Patparganj, Delhi - DPCC","06-04-2026 18:00:00",28.623763,77.287209,OZONE,2,165,142
India,Delhi,Delhi,"Punjabi Bagh, Delhi - DPCC","06-04-2026 18:00:00",28.674045,77.131023,PM2.5,22,322,103
India,Delhi,Delhi,"Punjabi Bagh, Delhi - DPCC","06-04-2026 18:00:00",28.674045,77.131023,PM10,59,266,114
India,Delhi,Delhi,"Pusa, Delhi - DPCC","06-04-2026 18:00:00",28.639652,77.146275,OZONE,3,86,78
India,Delhi,Delhi,"R K Puram, Delhi - DPCC","06-04-2026 18:00:00",28.563262,77.186937,SO2,3,100,40
India,Delhi,Delhi,"Shadipur, Delhi - CPCB","06-04-2026 18:00:00",28.6514781,77.1473105,NO2,35,91,49
India,Delhi,Delhi,"Shadipur, Delhi - CPCB","06-04-2026 18:00:00",28.6514781,77.1473105,NH3,6,9,7
India,Delhi,Delhi,"Wazirpur, Delhi - DPCC","06-04-2026 18:00:00",28.699793,77.165453,CO,30,102,42
India,Gujarat,Ahmedabad,"Chandkheda, Ahmedabad - IITM","06-04-2026 18:00:00",23.107969,72.574648,NH3,5,8,7
India,Gujarat,Ahmedabad,"Gyaspur, Ahmedabad - IITM","06-04-2026 18:00:00",22.977134,72.553024,PM2.5,21,141,57
India,Gujarat,Ahmedabad,"Raikhad, Ahmedabad - IITM","06-04-2026 18:00:00",23.020509,72.579261,SO2,5,115,16
India,Gujarat,Ahmedabad,"Rakhial, Ahmedabad - IITM","06-04-2026 18:00:00",23.016834,72.625775,PM10,59,219,98
India,Gujarat,Ahmedabad,"Rakhial, Ahmedabad - IITM","06-04-2026 18:00:00",23.016834,72.625775,NO2,29,159,69
India,Delhi,Delhi,"Sirifort, Delhi - CPCB","06-04-2026 18:00:00",28.5504249,77.2159377,PM2.5,33,237,86
India,Delhi,Delhi,"Sirifort, Delhi - CPCB","06-04-2026 18:00:00",28.5504249,77.2159377,CO,2,36,10
India,Delhi,Delhi,"Sirifort, Delhi - CPCB","06-04-2026 18:00:00",28.5504249,77.2159377,OZONE,10,31,24
India,Delhi,Delhi,"Sonia Vihar, Delhi - DPCC","06-04-2026 18:00:00",28.710508,77.249485,PM10,45,206,106
India,Delhi,Delhi,"Sri Aurobindo Marg, Delhi - DPCC","06-04-2026 18:00:00",28.531346,77.190156,OZONE,2,115,106
India,Delhi,Delhi,"Vivek Vihar, Delhi - DPCC","06-04-2026 18:00:00",28.672342,77.315260,PM10,58,259,130
India,Delhi,Delhi,"IIT Delhi, Delhi - IITM","06-04-2026 18:00:00",28.542460,77.191651,PM10,52,192,111
India,Delhi,Delhi,"ITO, Delhi - CPCB","06-04-2026 18:00:00",28.628624,77.241060,NH3,4,7,5
India,Delhi,Delhi,"ITO, Delhi - CPCB","06-04-2026 18:00:00",28.628624,77.241060,SO2,11,25,20
India,Delhi,Delhi,"ITO, Delhi - CPCB","06-04-2026 18:00:00",28.628624,77.241060,CO,21,104,29
India,Delhi,Delhi,"JNU, Delhi - DPCC","06-04-2026 18:00:00","28.540721 ","77.168544 ",PM2.5,10,210,69
India,Gujarat,Rajkot,"Mavdi, Rajkot - Nexteng Enviro ","06-04-2026 18:00:00",22.248853,70.776774,PM2.5,13,77,33
India,Gujarat,Surat,"Katargam, Surat - Nexteng Enviro","06-04-2026 18:00:00","21.217779 ","72.834787 ",OZONE,11,11,11
India,Gujarat,Surat,"Science Center, Surat - SMC","06-04-2026 18:00:00",21.170046,72.795405,PM10,19,90,54
India,Delhi,Delhi,"Jahangirpuri, Delhi - DPCC","06-04-2026 18:00:00",28.732820,77.170633,NH3,7,14,11
India,Delhi,Delhi,"Lodhi Road, Delhi - IMD","06-04-2026 18:00:00",28.5918245,77.2273074,PM2.5,40,180,70
India,Delhi,Delhi,"Lodhi Road, Delhi - IMD","06-04-2026 18:00:00",28.5918245,77.2273074,NO2,11,50,26
India,Jharkhand,Jorapokhar,"Tata Stadium, Jorapokhar - JSPCB","06-04-2026 18:00:00",23.707909,86.414670,NO2,8,8,8
India,Jharkhand,Jorapokhar,"Tata Stadium, Jorapokhar - JSPCB","06-04-2026 18:00:00",23.707909,86.414670,NH3,3,3,3
India,Jharkhand,Jorapokhar,"Tata Stadium, Jorapokhar - JSPCB","06-04-2026 18:00:00",23.707909,86.414670,OZONE,2,5,4
India,Karnataka,Bagalkot,"Vidayagiri, Bagalkot - KSPCB","06-04-2026 18:00:00",16.172806,75.659694,PM10,49,50,50
India,Karnataka,Bengaluru,"BTM Layout, Bengaluru - CPCB","06-04-2026 18:00:00",12.9135218,77.5950804,PM2.5,33,57,43
India,Karnataka,Bengaluru,"BWSSB Kadabesanahalli, Bengaluru - CPCB","06-04-2026 18:00:00",12.9352049,77.6814488,NH3,1,1,1
India,Karnataka,Bengaluru,"BWSSB Kadabesanahalli, Bengaluru - CPCB","06-04-2026 18:00:00",12.9352049,77.6814488,SO2,3,7,5
India,Karnataka,Bengaluru,"Bapuji Nagar, Bengaluru - KSPCB","06-04-2026 18:00:00",12.951913,77.539784,NO2,26,35,30
India,Karnataka,Bengaluru,"Bapuji Nagar, Bengaluru - KSPCB","06-04-2026 18:00:00",12.951913,77.539784,OZONE,23,67,57
India,Karnataka,Bengaluru,"City Railway Station, Bengaluru - KSPCB","06-04-2026 18:00:00",12.9756843,77.5660749,PM10,110,111,111
India,Karnataka,Bengaluru,"City Railway Station, Bengaluru - KSPCB","06-04-2026 18:00:00",12.9756843,77.5660749,NO2,45,53,49
India,Haryana,Hisar,"Urban Estate-II, Hisar - HSPCB","06-04-2026 18:00:00",29.140560,75.744941,NH3,13,13,13
India,Haryana,Jind,"Police Lines, Jind - HSPCB","06-04-2026 18:00:00",29.307814,76.337619,PM10,32,103,56
India,Haryana,Jind,"Police Lines, Jind - HSPCB","06-04-2026 18:00:00",29.307814,76.337619,NH3,4,6,5
India,Haryana,Jind,"Police Lines, Jind - HSPCB","06-04-2026 18:00:00",29.307814,76.337619,SO2,1,10,2
India,Haryana,Jind,"Police Lines, Jind - HSPCB","06-04-2026 18:00:00",29.307814,76.337619,CO,1,32,8
India,Haryana,Kaithal,"Rishi Nagar, Kaithal - HSPCB","06-04-2026 18:00:00",29.8006,76.4155,CO,29,70,40
India,Haryana,Kaithal,"Rishi Nagar, Kaithal - HSPCB","06-04-2026 18:00:00",29.8006,76.4155,OZONE,8,13,12
India,Haryana,Karnal,"Sector-12, Karnal - HSPCB","06-04-2026 18:00:00",29.695300,77.002700,PM10,25,117,67
India,Haryana,Karnal,"Sector-12, Karnal - HSPCB","06-04-2026 18:00:00",29.695300,77.002700,CO,12,16,13
India,Haryana,Kurukshetra,"Sector-7, Kurukshetra - HSPCB","06-04-2026 18:00:00",29.966942,76.875879,SO2,2,117,28
India,Haryana,Kurukshetra,"Sector-7, Kurukshetra - HSPCB","06-04-2026 18:00:00",29.966942,76.875879,OZONE,4,42,20
India,Haryana,Manesar,"Sector-2 IMT, Manesar - HSPCB","06-04-2026 18:00:00",28.360699,76.936090,CO,6,21,9
India,Haryana,Manesar,"Sector-2 IMT, Manesar - HSPCB","06-04-2026 18:00:00",28.360699,76.936090,OZONE,7,8,7
India,Haryana,Narnaul,"Shastri Nagar, Narnaul - HSPCB","06-04-2026 18:00:00",28.060249,76.113115,PM2.5,47,217,92
India,Haryana,Palwal,"Shyam Nagar, Palwal - HSPCB","06-04-2026 18:00:00",28.1485564,77.3320667,CO,27,28,28
India,Haryana,Panchgaon,"Amity University, Panchgaon - IITM","06-04-2026 18:00:00",28.3153,76.9143,NO2,4,37,15
India,Haryana,Panchgaon,"Amity University, Panchgaon - IITM","06-04-2026 18:00:00",28.3153,76.9143,SO2,3,24,13
India,Haryana,Panchkula,"Sector-6, Panchkula - HSPCB ","06-04-2026 18:00:00",30.7057778,76.8531805555555,PM2.5,14,62,36
India,Haryana,Faridabad,"Sector 30, Faridabad - HSPCB","06-04-2026 18:00:00",28.4417,77.3217,NH3,11,12,11
India,Haryana,Faridabad,"Sector 30, Faridabad - HSPCB","06-04-2026 18:00:00",28.4417,77.3217,CO,58,65,62
India,Haryana,Gurugram,"NISE Gwal Pahari, Gurugram - IMD","06-04-2026 18:00:00",28.422681,77.148944,CO,20,51,23
India,Haryana,Gurugram,"Sector-51, Gurugram - HSPCB","06-04-2026 18:00:00",28.4227,77.0667,PM10,69,280,126
